[
  {
    "id": "1-001",
    "name": "峰头水库",
    "province": "福建",
    "location": "福建漳州市云霄县",
    "coordinates": [
      117.340946,
      23.950486
    ],
    "city": "漳州市",
    "county": "云霄县",
    "type": "大型",
    "capacity": 17600.0,
    "damType": "重力坝",
    "maxHeight": 64.4
  },
  {
    "id": "1-002",
    "name": "夏家寺水库",
    "province": "湖北",
    "location": "湖北武汉市黄陂区",
    "coordinates": [
      114.374025,
      30.874155
    ],
    "city": "武汉市",
    "county": "黄陂区",
    "basin": "长江流域",
    "type": "大型",
    "capacity": 25436.0,
    "damType": "心墙坝",
    "maxHeight": 15.0
  },
  {
    "id": "1-003",
    "name": "海龙水库",
    "province": "吉林",
    "location": "吉林梅河口市小杨乡",
    "coordinates": [
      125.3245,
      43.886841
    ],
    "city": "梅河口市",
    "county": "小杨乡",
    "basin": "松花江及辽河流域",
    "type": "大型",
    "capacity": 31600.0,
    "damType": "斜墙坝",
    "maxHeight": 31.1
  },
  {
    "id": "1-004",
    "name": "沙河水库",
    "province": "江苏",
    "location": "江苏溧阳市天目湖镇",
    "coordinates": [
      118.767413,
      32.041544
    ],
    "city": "溧阳市",
    "county": "天目湖镇",
    "basin": "太湖流域",
    "type": "大型",
    "capacity": 10830.0,
    "damType": "均质坝",
    "maxHeight": 21.0
  },
  {
    "id": "1-005",
    "name": "白浪河水库",
    "province": "山东",
    "location": "山东潍坊市潍城区",
    "coordinates": [
      119.103784,
      36.710062
    ],
    "city": "潍坊市",
    "county": "潍城区",
    "basin": "海河流域",
    "type": "大型",
    "capacity": 14780.0,
    "damType": "均质坝",
    "maxHeight": 14.55
  },
  {
    "id": "1-006",
    "name": "安乐水库",
    "province": "广西",
    "location": "广西柳州市柳城县",
    "coordinates": [
      109.245812,
      24.655121
    ],
    "city": "柳州市",
    "county": "柳城县",
    "basin": "珠江流域",
    "type": "中型",
    "capacity": 1625.0,
    "damType": "均质坝",
    "maxHeight": 15.35
  },
  {
    "id": "1-007",
    "name": "格八水库",
    "province": "贵州",
    "location": "贵州安顺市紫云县",
    "coordinates": [
      105.932188,
      26.245544
    ],
    "city": "安顺市",
    "county": "紫云县",
    "basin": "珠江流域",
    "type": "中型",
    "capacity": 1098.0,
    "damType": "拱坝",
    "maxHeight": 30.8
  },
  {
    "id": "1-008",
    "name": "石坝仔水库",
    "province": "湖南",
    "location": "湖南永州市芝山区",
    "coordinates": [
      111.608019,
      26.434516
    ],
    "city": "永州市",
    "county": "芝山区",
    "basin": "长江流域",
    "type": "中型",
    "capacity": 2796.0,
    "damType": "均质坝",
    "maxHeight": 33.5
  },
  {
    "id": "1-009",
    "name": "庆安水库",
    "province": "江苏",
    "location": "江苏徐州市睢宁县",
    "coordinates": [
      117.95066,
      33.899222
    ],
    "city": "徐州市",
    "county": "睢宁县",
    "basin": "淮河流域",
    "type": "中型",
    "capacity": 6293.0,
    "damType": "均质坝",
    "maxHeight": 8.8
  },
  {
    "id": "1-010",
    "name": "八一水库",
    "province": "四川",
    "location": "四川绵阳市江油市",
    "coordinates": [
      104.744431,
      31.776386
    ],
    "city": "绵阳市",
    "county": "江油市",
    "basin": "长江流域",
    "type": "中型",
    "capacity": 1188.0,
    "damType": "均质坝",
    "maxHeight": 25.6
  },
  {
    "id": "1-011",
    "name": "解放村水库",
    "province": "甘肃",
    "location": "甘肃酒泉市金塔县",
    "coordinates": [
      98.902959,
      39.983036
    ],
    "city": "酒泉市",
    "county": "金塔县",
    "basin": "黄河流域",
    "type": "中型",
    "capacity": 3905.0,
    "damType": "心墙坝",
    "maxHeight": 16.0
  },
  {
    "id": "1-012",
    "name": "鸳鸯池水库",
    "province": "甘肃",
    "location": "甘肃酒泉市金塔县",
    "coordinates": [
      98.902959,
      39.983036
    ],
    "city": "酒泉市",
    "county": "金塔县",
    "basin": "黄河流域",
    "type": "大型",
    "capacity": 12780.0,
    "damType": "心墙坝",
    "maxHeight": 30.26
  },
  {
    "id": "1-013",
    "name": "顶溪",
    "province": "广东",
    "location": "广东揭阳市惠来县",
    "coordinates": [
      116.295832,
      23.029834
    ],
    "city": "揭阳市",
    "county": "惠来县",
    "basin": "珠江流域",
    "type": "中型",
    "capacity": 2676.0,
    "damType": "均质坝",
    "maxHeight": 19.32
  },
  {
    "id": "1-014",
    "name": "尖官陂",
    "province": "广东",
    "location": "广东揭阳市惠来县",
    "coordinates": [
      116.295832,
      23.029834
    ],
    "city": "揭阳市",
    "county": "惠来县",
    "basin": "珠江流域",
    "type": "中型",
    "capacity": 2426.0,
    "damType": "均质坝",
    "maxHeight": 24.37
  },
  {
    "id": "1-015",
    "name": "峨侣水库",
    "province": "广西",
    "location": "广西柳州市柳城县",
    "coordinates": [
      109.245812,
      24.655121
    ],
    "city": "柳州市",
    "county": "柳城县",
    "basin": "珠江流域",
    "type": "中型",
    "capacity": 1452.0,
    "damType": "均质坝",
    "maxHeight": 16.0
  },
  {
    "id": "1-016",
    "name": "惠洞",
    "province": "广西",
    "location": "广西百色市田阳县",
    "coordinates": [
      106.904315,
      23.736079
    ],
    "city": "百色市",
    "county": "田阳县",
    "basin": "珠江流域",
    "type": "中型",
    "capacity": 1986.0,
    "damType": "心墙坝",
    "maxHeight": 28.2
  },
  {
    "id": "1-017",
    "name": "金龙",
    "province": "广西",
    "location": "广西崇左市龙州县",
    "coordinates": [
      106.857502,
      22.343716
    ],
    "city": "崇左市",
    "county": "龙州县",
    "basin": "珠江流域",
    "type": "中型",
    "capacity": 2320.0,
    "damType": "均质坝",
    "maxHeight": 16.5
  },
  {
    "id": "1-018",
    "name": "罗贤",
    "province": "广西",
    "location": "广西贵港市桂平市",
    "coordinates": [
      110.074668,
      23.382473
    ],
    "city": "贵港市",
    "county": "桂平市",
    "basin": "珠江流域",
    "type": "中型",
    "capacity": 2260.0,
    "damType": "心墙坝",
    "maxHeight": 21.85
  },
  {
    "id": "1-019",
    "name": "若兰",
    "province": "广西",
    "location": "广西崇左市天等县",
    "coordinates": [
      107.142441,
      23.082484
    ],
    "city": "崇左市",
    "county": "天等县",
    "basin": "珠江流域",
    "type": "中型",
    "capacity": 4850.0,
    "damType": "均质坝",
    "maxHeight": 37.0
  },
  {
    "id": "1-020",
    "name": "易家",
    "province": "广西",
    "location": "广西桂林市全州县",
    "coordinates": [
      111.072989,
      25.929897
    ],
    "city": "桂林市",
    "county": "全州县",
    "basin": "长江流域",
    "type": "中型",
    "capacity": 1044.0,
    "damType": "拱坝",
    "maxHeight": 39.0
  },
  {
    "id": "1-021",
    "name": "松木山水库",
    "province": "广东",
    "location": "广东东莞市大岭山",
    "coordinates": [
      113.746262,
      23.046237
    ],
    "city": "东莞市",
    "county": "大岭山",
    "basin": "珠江流域",
    "type": "中型",
    "capacity": 5212.0,
    "damType": "均质坝",
    "maxHeight": 20.38
  },
  {
    "id": "1-022",
    "name": "甘金桥水库",
    "province": "贵州",
    "location": "贵州铜仁市印江土家族苗族自治县",
    "coordinates": [
      108.405517,
      27.997976
    ],
    "city": "铜仁市",
    "county": "印江土家族苗族自治县",
    "basin": "长江流域",
    "type": "中型",
    "capacity": 3480.0,
    "damType": "拱坝",
    "maxHeight": 49.2
  },
  {
    "id": "1-023",
    "name": "茶园水库",
    "province": "贵州",
    "location": "贵州黔南布依族苗族自治州都匀市",
    "coordinates": [
      107.517021,
      26.258205
    ],
    "city": "黔南布依族苗族自治州",
    "county": "都匀市",
    "basin": "长江流域",
    "type": "中型",
    "capacity": 1960.0,
    "damType": "拱坝",
    "maxHeight": 47.5
  },
  {
    "id": "1-024",
    "name": "团结水库",
    "province": "贵州",
    "location": "贵州遵义市余庆县",
    "coordinates": [
      107.892566,
      27.221552
    ],
    "city": "遵义市",
    "county": "余庆县",
    "basin": "长江流域",
    "type": "中型",
    "capacity": 1780.0,
    "damType": "拱坝",
    "maxHeight": 37.4
  },
  {
    "id": "1-025",
    "name": "五一",
    "province": "黑龙江",
    "location": "黑龙江黑河市五大连池市",
    "coordinates": [
      126.197694,
      48.512688
    ],
    "city": "黑河市",
    "county": "五大连池市",
    "basin": "松花江及辽河流域",
    "type": "中型",
    "capacity": 1259.0,
    "damType": "均质坝",
    "maxHeight": 6.7
  },
  {
    "id": "1-026",
    "name": "向阳山水库",
    "province": "黑龙江",
    "location": "黑龙江佳木斯市桦南县",
    "coordinates": [
      130.570112,
      46.240118
    ],
    "city": "佳木斯市",
    "county": "桦南县",
    "basin": "松花江及辽河流域",
    "type": "大型",
    "capacity": 15700.0,
    "damType": "心墙坝",
    "maxHeight": 20.2
  },
  {
    "id": "1-027",
    "name": "八字门水库",
    "province": "湖北",
    "location": "湖北荆门市京山市",
    "coordinates": [
      113.114595,
      31.022458
    ],
    "city": "荆门市",
    "county": "京山市",
    "basin": "长江流域",
    "type": "大型",
    "capacity": 10542.0,
    "damType": "心墙坝",
    "maxHeight": 54.4
  },
  {
    "id": "1-028",
    "name": "百丈潭",
    "province": "湖北",
    "location": "湖北咸宁市通城县",
    "coordinates": [
      113.814131,
      29.246076
    ],
    "city": "咸宁市",
    "county": "通城县",
    "basin": "长江流域",
    "type": "中型",
    "capacity": 1720.0,
    "damType": "心墙坝",
    "maxHeight": 40.0
  },
  {
    "id": "1-029",
    "name": "东冲",
    "province": "湖北",
    "location": "湖北咸宁市通城县",
    "coordinates": [
      113.814131,
      29.246076
    ],
    "city": "咸宁市",
    "county": "通城县",
    "basin": "长江流域",
    "type": "中型",
    "capacity": 1299.0,
    "damType": "心墙坝",
    "maxHeight": 36.86
  },
  {
    "id": "1-030",
    "name": "芳畈",
    "province": "湖北",
    "location": "湖北孝感市孝昌县",
    "coordinates": [
      113.988964,
      31.251618
    ],
    "city": "孝感市",
    "county": "孝昌县",
    "basin": "长江流域",
    "type": "中型",
    "capacity": 5840.0,
    "damType": "心墙坝",
    "maxHeight": 37.8
  },
  {
    "id": "1-031",
    "name": "富水",
    "province": "湖北",
    "location": "湖北黄石市阳新县",
    "coordinates": [
      115.212883,
      29.841572
    ],
    "city": "黄石市",
    "county": "阳新县",
    "basin": "长江流域",
    "type": "大型",
    "capacity": 162100.0,
    "damType": "心墙坝",
    "maxHeight": 46.8
  },
  {
    "id": "1-032",
    "name": "巩河水库",
    "province": "湖北",
    "location": "湖北宜昌市当阳市",
    "coordinates": [
      111.793419,
      30.824492
    ],
    "city": "宜昌市",
    "county": "当阳市",
    "basin": "长江流域",
    "type": "大型",
    "capacity": 17200.0,
    "damType": "心墙坝",
    "maxHeight": 49.0
  },
  {
    "id": "1-033",
    "name": "黄坡",
    "province": "湖北",
    "location": "湖北荆门市钟祥市",
    "coordinates": [
      112.587267,
      31.165573
    ],
    "city": "荆门市",
    "county": "钟祥市",
    "basin": "长江流域",
    "type": "大型",
    "capacity": 12561.0,
    "damType": "心墙坝",
    "maxHeight": 28.7
  },
  {
    "id": "1-034",
    "name": "九道河",
    "province": "湖北",
    "location": "湖北宜昌市宜都市",
    "coordinates": [
      111.454367,
      30.387234
    ],
    "city": "宜昌市",
    "county": "宜都市",
    "basin": "长江流域",
    "type": "中型",
    "capacity": 1338.0,
    "damType": "心墙坝",
    "maxHeight": 44.0
  },
  {
    "id": "1-035",
    "name": "四门楼",
    "province": "湖北",
    "location": "湖北咸宁市咸安区",
    "coordinates": [
      114.333894,
      29.824716
    ],
    "city": "咸宁市",
    "county": "咸安区",
    "basin": "长江流域",
    "type": "中型",
    "capacity": 3580.0,
    "damType": "心墙坝",
    "maxHeight": 31.2
  },
  {
    "id": "1-036",
    "name": "横河水库",
    "province": "湖北",
    "location": "湖北黄冈市团风县",
    "coordinates": [
      114.872029,
      30.63569
    ],
    "city": "黄冈市",
    "county": "团风县",
    "basin": "长江流域",
    "type": "中型",
    "capacity": 2321.0,
    "damType": "心墙坝",
    "maxHeight": 40.68
  },
  {
    "id": "1-037",
    "name": "汪家河",
    "province": "湖北",
    "location": "湖北十堰市房县",
    "coordinates": [
      110.741966,
      32.055002
    ],
    "city": "十堰市",
    "county": "房县",
    "basin": "长江流域",
    "type": "中型",
    "capacity": 1126.0,
    "damType": "心墙坝",
    "maxHeight": 42.4
  },
  {
    "id": "1-038",
    "name": "杨树河水库",
    "province": "湖北",
    "location": "湖北宜昌市当阳市",
    "coordinates": [
      111.793419,
      30.824492
    ],
    "city": "宜昌市",
    "county": "当阳市",
    "basin": "长江流域",
    "type": "中型",
    "capacity": 1994.0,
    "damType": "心墙坝",
    "maxHeight": 34.5
  },
  {
    "id": "1-039",
    "name": "半山水库",
    "province": "湖南",
    "location": "湖南娄底市新化县",
    "coordinates": [
      111.306747,
      27.737456
    ],
    "city": "娄底市",
    "county": "新化县",
    "basin": "长江流域",
    "type": "中型",
    "capacity": 1505.0,
    "damType": "心墙坝",
    "maxHeight": 30.0
  },
  {
    "id": "1-040",
    "name": "大石",
    "province": "湖南",
    "location": "湖南郴州市安仁县",
    "coordinates": [
      113.27217,
      26.708625
    ],
    "city": "郴州市",
    "county": "安仁县",
    "basin": "长江流域",
    "type": "中型",
    "capacity": 1285.0,
    "damType": "重力坝",
    "maxHeight": 18.1
  },
  {
    "id": "1-041",
    "name": "大圳",
    "province": "湖南",
    "location": "湖南邵阳市大祥区",
    "coordinates": [
      111.462968,
      27.233593
    ],
    "city": "邵阳市",
    "county": "大祥区",
    "basin": "长江流域",
    "type": "中型",
    "capacity": 6350.0,
    "damType": "重力坝",
    "maxHeight": 79.3
  },
  {
    "id": "1-042",
    "name": "高峰",
    "province": "湖南",
    "location": "湖南郴州市苏仙区",
    "coordinates": [
      113.038698,
      25.793157
    ],
    "city": "郴州市",
    "county": "苏仙区",
    "basin": "长江流域",
    "type": "中型",
    "capacity": 1289.0,
    "damType": "心墙坝",
    "maxHeight": 43.75
  },
  {
    "id": "1-043",
    "name": "高岩",
    "province": "湖南",
    "location": "湖南永州市东安县",
    "coordinates": [
      129.623292,
      44.582399
    ],
    "city": "永州市",
    "county": "东安县",
    "basin": "长江流域",
    "type": "中型",
    "capacity": 4680.0,
    "damType": "重力坝",
    "maxHeight": 67.0
  },
  {
    "id": "1-044",
    "name": "官庄水库",
    "province": "湖南",
    "location": "湖南株洲市醴陵市",
    "coordinates": [
      113.507157,
      27.657873
    ],
    "city": "株洲市",
    "county": "醴陵市",
    "basin": "长江流域",
    "type": "大型",
    "capacity": 12000.0,
    "damType": "心墙坝",
    "maxHeight": 40.4
  },
  {
    "id": "1-045",
    "name": "红岩",
    "province": "湖南",
    "location": "湖南益阳市安化县",
    "coordinates": [
      111.221824,
      28.377421
    ],
    "city": "益阳市",
    "county": "安化县",
    "basin": "长江流域",
    "type": "中型",
    "capacity": 1037.0,
    "damType": "重力坝",
    "maxHeight": 48.5
  },
  {
    "id": "1-046",
    "name": "黄石洞",
    "province": "湖南",
    "location": "湖南湘西土家族苗族自治州吉首市",
    "coordinates": [
      109.738273,
      28.314827
    ],
    "city": "湘西土家族苗族自治州",
    "county": "吉首市",
    "basin": "长江流域",
    "type": "中型",
    "capacity": 1047.0,
    "damType": "其他",
    "maxHeight": 44.0
  },
  {
    "id": "1-047",
    "name": "贾坝",
    "province": "湖南",
    "location": "湖南湘西土家族苗族自治州龙山县",
    "coordinates": [
      125.145164,
      42.902702
    ],
    "city": "湘西土家族苗族自治州",
    "county": "龙山县",
    "basin": "长江流域",
    "type": "中型",
    "capacity": 1311.0,
    "damType": "心墙坝",
    "maxHeight": 32.0
  },
  {
    "id": "1-048",
    "name": "金厂坪",
    "province": "湖南",
    "location": "湖南怀化市芷江侗族自治县",
    "coordinates": [
      109.687777,
      27.437996
    ],
    "city": "怀化市",
    "county": "芷江侗族自治县",
    "basin": "长江流域",
    "type": "中型",
    "capacity": 1537.0,
    "damType": "心墙坝",
    "maxHeight": 43.0
  },
  {
    "id": "1-049",
    "name": "九峰",
    "province": "湖南",
    "location": "湖南岳阳市平江县",
    "coordinates": [
      113.593751,
      28.701523
    ],
    "city": "岳阳市",
    "county": "平江县",
    "basin": "长江流域",
    "type": "中型",
    "capacity": 1256.0,
    "damType": "心墙坝",
    "maxHeight": 66.5
  },
  {
    "id": "1-050",
    "name": "卡棚",
    "province": "湖南",
    "location": "湖南湘西土家族苗族自治州保靖县",
    "coordinates": [
      109.651445,
      28.709605
    ],
    "city": "湘西土家族苗族自治州",
    "county": "保靖县",
    "basin": "长江流域",
    "type": "中型",
    "capacity": 2600.0,
    "damType": "拱坝",
    "maxHeight": 67.4
  },
  {
    "id": "1-051",
    "name": "兰家洞",
    "province": "湖南",
    "location": "湖南岳阳市汨罗市",
    "coordinates": [
      113.079419,
      28.803149
    ],
    "city": "岳阳市",
    "county": "汨罗市",
    "basin": "长江流域",
    "type": "中型",
    "capacity": 5755.0,
    "damType": "斜墙坝",
    "maxHeight": 43.0
  },
  {
    "id": "1-052",
    "name": "梨溪口",
    "province": "湖南",
    "location": "湖南怀化市芷江侗族自治县",
    "coordinates": [
      109.687777,
      27.437996
    ],
    "city": "怀化市",
    "county": "芷江侗族自治县",
    "basin": "长江流域",
    "type": "中型",
    "capacity": 3552.0,
    "damType": "心墙坝",
    "maxHeight": 47.0
  },
  {
    "id": "1-053",
    "name": "里山河",
    "province": "湖南",
    "location": "湖南常德市石门县",
    "coordinates": [
      111.379087,
      29.584703
    ],
    "city": "常德市",
    "county": "石门县",
    "basin": "长江流域",
    "type": "中型",
    "capacity": 1438.0,
    "damType": "心墙坝",
    "maxHeight": 32.27
  },
  {
    "id": "1-054",
    "name": "莲塘",
    "province": "湖南",
    "location": "湖南郴州市桂阳县",
    "coordinates": [
      112.734466,
      25.737447
    ],
    "city": "郴州市",
    "county": "桂阳县",
    "basin": "长江流域",
    "type": "中型",
    "capacity": 2930.0,
    "damType": "心墙坝",
    "maxHeight": 39.9
  },
  {
    "id": "1-055",
    "name": "廖家坪",
    "province": "湖南",
    "location": "湖南益阳市安化县",
    "coordinates": [
      111.221824,
      28.377421
    ],
    "city": "益阳市",
    "county": "安化县",
    "basin": "长江流域",
    "type": "中型",
    "capacity": 4330.0,
    "damType": "重力坝",
    "maxHeight": 57.0
  },
  {
    "id": "1-056",
    "name": "龙虎洞",
    "province": "湖南",
    "location": "湖南郴州市汝城县",
    "coordinates": [
      113.685686,
      25.553759
    ],
    "city": "郴州市",
    "county": "汝城县",
    "basin": "长江流域",
    "type": "中型",
    "capacity": 3350.0,
    "damType": "均质坝",
    "maxHeight": 49.3
  },
  {
    "id": "1-057",
    "name": "龙溪桥",
    "province": "湖南",
    "location": "湖南衡阳市衡南县",
    "coordinates": [
      112.677459,
      26.739973
    ],
    "city": "衡阳市",
    "county": "衡南县",
    "basin": "长江流域",
    "type": "中型",
    "capacity": 4301.0,
    "damType": "均质坝",
    "maxHeight": 32.34
  },
  {
    "id": "1-058",
    "name": "梅花洞水库",
    "province": "湖南",
    "location": "湖南娄底市新化县",
    "coordinates": [
      111.306747,
      27.737456
    ],
    "city": "娄底市",
    "county": "新化县",
    "basin": "长江流域",
    "type": "中型",
    "capacity": 2023.0,
    "damType": "心墙坝",
    "maxHeight": 30.2
  },
  {
    "id": "1-059",
    "name": "马鞍石水库",
    "province": "河南",
    "location": "河南焦作市修武县",
    "coordinates": [
      113.447465,
      35.229923
    ],
    "city": "焦作市",
    "county": "修武县",
    "basin": "海河流域",
    "type": "中型",
    "capacity": 1033.0,
    "damType": "拱坝",
    "maxHeight": 65.1
  },
  {
    "id": "1-060",
    "name": "蒙泉",
    "province": "湖南",
    "location": "湖南常德市石门县",
    "coordinates": [
      111.379087,
      29.584703
    ],
    "city": "常德市",
    "county": "石门县",
    "basin": "长江流域",
    "type": "中型",
    "capacity": 6596.0,
    "damType": "心墙坝",
    "maxHeight": 43.0
  },
  {
    "id": "1-061",
    "name": "汨罗",
    "province": "湖南",
    "location": "湖南岳阳市汨罗市",
    "coordinates": [
      113.079419,
      28.803149
    ],
    "city": "岳阳市",
    "county": "汨罗市",
    "basin": "长江流域",
    "type": "中型",
    "capacity": 1210.0,
    "damType": "均质坝",
    "maxHeight": 62.18
  },
  {
    "id": "1-062",
    "name": "皮佳如",
    "province": "湖南",
    "location": "湖南株洲市攸县",
    "coordinates": [
      113.345774,
      27.000071
    ],
    "city": "株洲市",
    "county": "攸县",
    "basin": "长江流域",
    "type": "中型",
    "capacity": 1220.0,
    "damType": "心墙坝",
    "maxHeight": 34.5
  },
  {
    "id": "1-063",
    "name": "赛美",
    "province": "湖南",
    "location": "湖南岳阳市湘阴县",
    "coordinates": [
      112.889748,
      28.677498
    ],
    "city": "岳阳市",
    "county": "湘阴县",
    "basin": "长江流域",
    "type": "中型",
    "capacity": 1029.0,
    "damType": "均质坝",
    "maxHeight": 18.25
  },
  {
    "id": "1-064",
    "name": "三联",
    "province": "湖南",
    "location": "湖南邵阳市新宁县",
    "coordinates": [
      110.859115,
      26.438912
    ],
    "city": "邵阳市",
    "county": "新宁县",
    "basin": "长江流域",
    "type": "中型",
    "capacity": 1234.0,
    "damType": "心墙坝",
    "maxHeight": 63.7
  },
  {
    "id": "1-065",
    "name": "四清水库",
    "province": "湖南",
    "location": "湖南郴州市北湖区",
    "coordinates": [
      113.032208,
      25.792628
    ],
    "city": "郴州市",
    "county": "北湖区",
    "basin": "长江流域",
    "type": "中型",
    "capacity": 2105.0,
    "damType": "心墙坝",
    "maxHeight": 33.8
  },
  {
    "id": "1-066",
    "name": "同欢",
    "province": "湖南",
    "location": "湖南常德市临澧县",
    "coordinates": [
      111.645602,
      29.443217
    ],
    "city": "常德市",
    "county": "临澧县",
    "basin": "长江流域",
    "type": "中型",
    "capacity": 2234.0,
    "damType": "均质坝",
    "maxHeight": 19.26
  },
  {
    "id": "1-067",
    "name": "卧龙",
    "province": "湖南",
    "location": "湖南湘西土家族苗族自治州龙山县",
    "coordinates": [
      125.145164,
      42.902702
    ],
    "city": "湘西土家族苗族自治州",
    "county": "龙山县",
    "basin": "长江流域",
    "type": "中型",
    "capacity": 1463.0,
    "damType": "心墙坝",
    "maxHeight": 44.0
  },
  {
    "id": "1-068",
    "name": "五龙溪",
    "province": "湖南",
    "location": "湖南怀化市中方县",
    "coordinates": [
      109.948061,
      27.43736
    ],
    "city": "怀化市",
    "county": "中方县",
    "basin": "长江流域",
    "type": "中型",
    "capacity": 1232.0,
    "damType": "心墙坝",
    "maxHeight": 48.0
  },
  {
    "id": "1-069",
    "name": "仙岭水库",
    "province": "湖南",
    "location": "湖南郴州市北湖区",
    "coordinates": [
      113.032208,
      25.792628
    ],
    "city": "郴州市",
    "county": "北湖区",
    "basin": "长江流域",
    "type": "中型",
    "capacity": 1487.0,
    "damType": "均质坝",
    "maxHeight": 28.96
  },
  {
    "id": "1-070",
    "name": "向家洞",
    "province": "湖南",
    "location": "湖南岳阳市汨罗市",
    "coordinates": [
      113.079419,
      28.803149
    ],
    "city": "岳阳市",
    "county": "汨罗市",
    "basin": "长江流域",
    "type": "中型",
    "capacity": 2529.0,
    "damType": "心墙坝",
    "maxHeight": 35.0
  },
  {
    "id": "1-071",
    "name": "肖家山",
    "province": "湖南",
    "location": "湖南郴州市桂阳县",
    "coordinates": [
      112.734466,
      25.737447
    ],
    "city": "郴州市",
    "county": "桂阳县",
    "basin": "长江流域",
    "type": "中型",
    "capacity": 1050.0,
    "damType": "均质坝",
    "maxHeight": 29.7
  },
  {
    "id": "1-072",
    "name": "朝阳水库",
    "province": "湖南",
    "location": "湖南怀化市新晃侗族自治县",
    "coordinates": [
      109.174443,
      27.359897
    ],
    "city": "怀化市",
    "county": "新晃侗族自治县",
    "basin": "长江流域",
    "type": "中型",
    "capacity": 1384.0,
    "damType": "心墙坝",
    "maxHeight": 47.6
  },
  {
    "id": "1-073",
    "name": "兄弟河",
    "province": "湖南",
    "location": "湖南湘西土家族苗族自治州花垣县",
    "coordinates": [
      109.479063,
      28.581352
    ],
    "city": "湘西土家族苗族自治州",
    "county": "花垣县",
    "basin": "长江流域",
    "type": "中型",
    "capacity": 8148.0,
    "damType": "重力坝",
    "maxHeight": 67.5
  },
  {
    "id": "1-074",
    "name": "尧虞塘",
    "province": "湖南",
    "location": "湖南邵阳市新邵县",
    "coordinates": [
      111.459762,
      27.311429
    ],
    "city": "邵阳市",
    "county": "新邵县",
    "basin": "长江流域",
    "type": "中型",
    "capacity": 1590.0,
    "damType": "心墙坝",
    "maxHeight": 36.95
  },
  {
    "id": "1-075",
    "name": "渔梁湾",
    "province": "湖南",
    "location": "湖南怀化市洪江市",
    "coordinates": [
      109.831765,
      27.201876
    ],
    "city": "怀化市",
    "county": "洪江市",
    "basin": "长江流域",
    "type": "中型",
    "capacity": 1580.0,
    "damType": "重力坝",
    "maxHeight": 24.1
  },
  {
    "id": "1-076",
    "name": "双花水库",
    "province": "湖南",
    "location": "湖南岳阳市云溪区",
    "coordinates": [
      113.27387,
      29.473395
    ],
    "city": "岳阳市",
    "county": "云溪区",
    "basin": "长江流域",
    "type": "中型",
    "capacity": 1068.0,
    "damType": "心墙坝",
    "maxHeight": 40.35
  },
  {
    "id": "1-077",
    "name": "天马山",
    "province": "江西",
    "location": "江西吉安市青原区（原吉安县）",
    "coordinates": [
      114.986373,
      27.111699
    ],
    "city": "吉安市",
    "county": "青原区（原吉安县）",
    "basin": "长江流域",
    "type": "中型",
    "capacity": 1188.0,
    "damType": "拱坝",
    "maxHeight": 46.8
  },
  {
    "id": "1-078",
    "name": "团结",
    "province": "江西",
    "location": "江西赣州市宁都县",
    "coordinates": [
      116.018782,
      26.472054
    ],
    "city": "赣州市",
    "county": "宁都县",
    "basin": "长江流域",
    "type": "大型",
    "capacity": 14600.0,
    "damType": "重力坝",
    "maxHeight": 34.0
  },
  {
    "id": "1-079",
    "name": "中村",
    "province": "江西",
    "location": "江西赣州市信丰县",
    "coordinates": [
      114.930893,
      25.38023
    ],
    "city": "赣州市",
    "county": "信丰县",
    "basin": "长江流域",
    "type": "中型",
    "capacity": 1092.0,
    "damType": "均质坝",
    "maxHeight": 29.0
  },
  {
    "id": "1-080",
    "name": "碱锅水库",
    "province": "辽宁",
    "location": "辽宁阜新市阜新蒙古族自治县",
    "coordinates": [
      121.743125,
      42.058607
    ],
    "city": "阜新市",
    "county": "阜新蒙古族自治县",
    "basin": "松花江及辽河流域",
    "type": "中型",
    "capacity": 1205.0,
    "damType": "均质坝",
    "maxHeight": 7.52
  },
  {
    "id": "1-081",
    "name": "友邻水库",
    "province": "辽宁",
    "location": "辽宁锦州市黑山县",
    "coordinates": [
      122.117915,
      41.691804
    ],
    "city": "锦州市",
    "county": "黑山县",
    "basin": "松花江及辽河流域",
    "type": "中型",
    "capacity": 5339.0,
    "damType": "斜墙坝",
    "maxHeight": 17.34
  },
  {
    "id": "1-082",
    "name": "漠河沟水库",
    "province": "内蒙古",
    "location": "内蒙古通辽市库伦旗",
    "coordinates": [
      121.774886,
      42.734692
    ],
    "city": "通辽市",
    "county": "库伦旗",
    "basin": "松花江及辽河流域",
    "type": "中型",
    "capacity": 1387.0,
    "damType": "均质坝",
    "maxHeight": 25.25
  },
  {
    "id": "1-083",
    "name": "新发水库",
    "province": "内蒙古",
    "location": "内蒙古呼伦贝尔市莫力达瓦达斡尔族自治旗",
    "coordinates": [
      124.507401,
      48.478385
    ],
    "city": "呼伦贝尔市",
    "county": "莫力达瓦达斡尔族自治旗",
    "basin": "松花江及辽河流域",
    "type": "中型",
    "capacity": 3800.0,
    "damType": "均质坝",
    "maxHeight": 10.6
  },
  {
    "id": "1-084",
    "name": "小河西水库",
    "province": "内蒙古",
    "location": "内蒙古通辽市扎鲁特旗",
    "coordinates": [
      120.905275,
      44.555294
    ],
    "city": "通辽市",
    "county": "扎鲁特旗",
    "basin": "松花江及辽河流域",
    "type": "中型",
    "capacity": 1801.0,
    "damType": "均质坝",
    "maxHeight": 15.0
  },
  {
    "id": "1-085",
    "name": "蔡庄水库",
    "province": "山西",
    "location": "山西晋中市寿阳县",
    "coordinates": [
      113.177708,
      37.891136
    ],
    "city": "晋中市",
    "county": "寿阳县",
    "basin": "海河流域",
    "type": "中型",
    "capacity": 2070.0,
    "damType": "均质坝",
    "maxHeight": 22.2
  },
  {
    "id": "1-086",
    "name": "汾河",
    "province": "山西",
    "location": "山西太原市娄烦县",
    "coordinates": [
      111.793798,
      38.066035
    ],
    "city": "太原市",
    "county": "娄烦县",
    "basin": "黄河流域",
    "type": "大型",
    "capacity": 73300.0,
    "damType": "均质坝",
    "maxHeight": 61.4
  },
  {
    "id": "1-087",
    "name": "二龙山",
    "province": "陕西",
    "location": "陕西商洛市商州区",
    "coordinates": [
      109.937685,
      33.869208
    ],
    "city": "商洛市",
    "county": "商州区",
    "basin": "长江流域",
    "type": "中型",
    "capacity": 8100.0,
    "damType": "重力坝",
    "maxHeight": 63.7
  },
  {
    "id": "1-088",
    "name": "旧城",
    "province": "陕西",
    "location": "陕西榆林市靖边县",
    "coordinates": [
      108.80567,
      37.596084
    ],
    "city": "榆林市",
    "county": "靖边县",
    "basin": "黄河流域",
    "type": "中型",
    "capacity": 4360.0,
    "damType": "均质坝",
    "maxHeight": 60.58
  },
  {
    "id": "1-089",
    "name": "林皋",
    "province": "陕西",
    "location": "陕西渭南市白水县",
    "coordinates": [
      109.594309,
      35.177291
    ],
    "city": "渭南市",
    "county": "白水县",
    "basin": "黄河流域",
    "type": "中型",
    "capacity": 3300.0,
    "damType": "均质坝",
    "maxHeight": 34.1
  },
  {
    "id": "1-090",
    "name": "柳匠台",
    "province": "陕西",
    "location": "陕西榆林市靖边县",
    "coordinates": [
      108.80567,
      37.596084
    ],
    "city": "榆林市",
    "county": "靖边县",
    "basin": "黄河流域",
    "type": "中型",
    "capacity": 3944.0,
    "damType": "均质坝",
    "maxHeight": 53.53
  },
  {
    "id": "1-091",
    "name": "湭河",
    "province": "陕西",
    "location": "陕西渭南市临渭区",
    "coordinates": [
      109.503299,
      34.501271
    ],
    "city": "渭南市",
    "county": "临渭区",
    "basin": "黄河流域",
    "type": "中型",
    "capacity": 3028.0,
    "damType": "均质坝",
    "maxHeight": 32.0
  },
  {
    "id": "1-092",
    "name": "石峁",
    "province": "陕西",
    "location": "陕西榆林市榆阳区",
    "coordinates": [
      109.74791,
      38.299267
    ],
    "city": "榆林市",
    "county": "榆阳区",
    "basin": "黄河流域",
    "type": "中型",
    "capacity": 2509.0,
    "damType": "均质坝",
    "maxHeight": 33.47
  },
  {
    "id": "1-093",
    "name": "拓家河",
    "province": "陕西",
    "location": "陕西延安市洛川县",
    "coordinates": [
      109.435712,
      35.762133
    ],
    "city": "延安市",
    "county": "洛川县",
    "basin": "黄河流域",
    "type": "中型",
    "capacity": 1550.0,
    "damType": "均质坝",
    "maxHeight": 43.3
  },
  {
    "id": "1-094",
    "name": "杨家河",
    "province": "陕西",
    "location": "陕西咸阳市乾县",
    "coordinates": [
      108.247406,
      34.527261
    ],
    "city": "咸阳市",
    "county": "乾县",
    "basin": "黄河流域",
    "type": "中型",
    "capacity": 1695.0,
    "damType": "均质坝",
    "maxHeight": 48.8
  },
  {
    "id": "1-095",
    "name": "周湾",
    "province": "陕西",
    "location": "陕西延安市吴起县",
    "coordinates": [
      108.176976,
      36.924852
    ],
    "city": "延安市",
    "county": "吴起县",
    "basin": "黄河流域",
    "type": "中型",
    "capacity": 9651.0,
    "damType": "均质坝",
    "maxHeight": 90.0
  },
  {
    "id": "1-096",
    "name": "柏林",
    "province": "四川",
    "location": "四川达州市渠县",
    "coordinates": [
      106.970746,
      30.836348
    ],
    "city": "达州市",
    "county": "渠县",
    "basin": "长江流域",
    "type": "中型",
    "capacity": 2332.0,
    "damType": "均质坝",
    "maxHeight": 26.23
  },
  {
    "id": "1-097",
    "name": "郝家村",
    "province": "四川",
    "location": "四川宜宾市高县",
    "coordinates": [
      104.519187,
      28.435676
    ],
    "city": "宜宾市",
    "county": "高县",
    "basin": "长江流域",
    "type": "中型",
    "capacity": 1692.0,
    "damType": "重力坝",
    "maxHeight": 27.4
  },
  {
    "id": "1-098",
    "name": "马耳岩",
    "province": "四川",
    "location": "四川宜宾市南溪区",
    "coordinates": [
      104.981133,
      28.839806
    ],
    "city": "宜宾市",
    "county": "南溪区",
    "basin": "长江流域",
    "type": "中型",
    "capacity": 1853.0,
    "damType": "心墙坝",
    "maxHeight": 54.0
  },
  {
    "id": "1-099",
    "name": "金凤水库",
    "province": "湖南",
    "location": "湖南岳阳市岳阳楼区",
    "coordinates": [
      113.120751,
      29.366784
    ],
    "city": "岳阳市",
    "county": "岳阳楼区",
    "basin": "长江流域",
    "type": "中型",
    "capacity": 1172.0,
    "damType": "心墙坝",
    "maxHeight": 30.3
  },
  {
    "id": "1-100",
    "name": "乌木滩",
    "province": "四川",
    "location": "四川达州市大竹县",
    "coordinates": [
      107.20742,
      30.736289
    ],
    "city": "达州市",
    "county": "大竹县",
    "basin": "长江流域",
    "type": "中型",
    "capacity": 5310.0,
    "damType": "均质坝",
    "maxHeight": 20.8
  },
  {
    "id": "1-101",
    "name": "阿涡夺水库",
    "province": "西藏",
    "location": "西藏山南地区隆子县",
    "coordinates": [
      92.463309,
      28.408548
    ],
    "city": "山南地区",
    "county": "隆子县",
    "basin": "长江流域",
    "type": "中型",
    "capacity": 2540.0,
    "damType": "心墙坝",
    "maxHeight": 53.2
  },
  {
    "id": "1-102",
    "name": "雨补水库",
    "province": "云南",
    "location": "云南红河哈尼族彝族自治州弥勒市",
    "coordinates": [
      103.436988,
      24.40837
    ],
    "city": "红河哈尼族彝族自治州",
    "county": "弥勒市",
    "basin": "珠江流域",
    "type": "中型",
    "capacity": 5750.0,
    "damType": "心墙坝",
    "maxHeight": 62.75
  },
  {
    "id": "2-001",
    "name": "东山水库",
    "province": "安徽",
    "location": "安徽池州市青阳县",
    "coordinates": [
      117.857395,
      30.63818
    ],
    "city": "池州市",
    "county": "青阳县",
    "basin": "长江流域",
    "type": "中型",
    "capacity": 1725.0,
    "damType": "均质坝",
    "maxHeight": 29.6
  },
  {
    "id": "2-002",
    "name": "卢村水库",
    "province": "安徽",
    "location": "安徽宣城市广德市",
    "coordinates": [
      119.417521,
      30.893116
    ],
    "city": "宣城市",
    "county": "广德市",
    "basin": "长江流域",
    "type": "中型",
    "capacity": 6410.0,
    "damType": "均质坝",
    "maxHeight": 32.2
  },
  {
    "id": "2-003",
    "name": "永安坝北库",
    "province": "兵团",
    "location": "兵团农三师农三师",
    "coordinates": [
      79.92,
      40.62
    ],
    "city": "农三师",
    "county": "农三师",
    "basin": "黄河流域",
    "type": "中型",
    "capacity": 9000.0,
    "damType": "均质坝",
    "maxHeight": 9.0
  },
  {
    "id": "2-004",
    "name": "永安坝南库",
    "province": "兵团",
    "location": "兵团农三师农三师",
    "coordinates": [
      79.92,
      40.6
    ],
    "city": "农三师",
    "county": "农三师",
    "basin": "黄河流域",
    "type": "大型",
    "capacity": 11000.0,
    "damType": "均质坝",
    "maxHeight": 5.97
  },
  {
    "id": "2-005",
    "name": "冰湖水库",
    "province": "兵团",
    "location": "兵团农十二师农十二师",
    "coordinates": [
      86.15,
      43.82
    ],
    "city": "农十二师",
    "county": "农十二师",
    "basin": "黄河流域",
    "type": "中型",
    "capacity": 1900.0,
    "damType": "重力坝",
    "maxHeight": 11.8
  },
  {
    "id": "2-006",
    "name": "胜利水库",
    "province": "兵团",
    "location": "兵团农一师农一师",
    "coordinates": [
      86.05,
      44.3
    ],
    "city": "农一师",
    "county": "农一师",
    "basin": "黄河流域",
    "type": "大型",
    "capacity": 10800.0,
    "damType": "均质坝",
    "maxHeight": 8.67
  },
  {
    "id": "2-007",
    "name": "西大桥",
    "province": "兵团",
    "location": "兵团农一师农一师",
    "coordinates": [
      81.28,
      40.54
    ],
    "city": "农一师",
    "county": "农一师",
    "basin": "松花江及辽河流域",
    "type": "中型",
    "capacity": 2320.0,
    "damType": "均质坝",
    "maxHeight": 17.7
  },
  {
    "id": "2-008",
    "name": "新井子",
    "province": "兵团",
    "location": "兵团农一师农一师",
    "coordinates": [
      81.28,
      40.52
    ],
    "city": "农一师",
    "county": "农一师",
    "basin": "黄河流域",
    "type": "中型",
    "capacity": 8600.0,
    "damType": "均质坝",
    "maxHeight": 5.6
  },
  {
    "id": "2-009",
    "name": "党河水库",
    "province": "甘肃",
    "location": "甘肃酒泉市敦煌市",
    "coordinates": [
      94.664279,
      40.141119
    ],
    "city": "酒泉市",
    "county": "敦煌市",
    "basin": "黄河流域",
    "type": "中型",
    "capacity": 4640.0,
    "damType": "均质坝",
    "maxHeight": 56.8
  },
  {
    "id": "2-010",
    "name": "红河水库",
    "province": "甘肃",
    "location": "甘肃陇南市礼县",
    "coordinates": [
      105.181616,
      34.189387
    ],
    "city": "陇南市",
    "county": "礼县",
    "basin": "长江流域",
    "type": "中型",
    "capacity": 2137.5,
    "damType": "均质坝",
    "maxHeight": 29.9
  },
  {
    "id": "2-011",
    "name": "汤溪",
    "province": "广东",
    "location": "广东潮州市饶平县",
    "coordinates": [
      117.00205,
      23.668171
    ],
    "city": "潮州市",
    "county": "饶平县",
    "basin": "黄河流域",
    "type": "大型",
    "capacity": 38100.0,
    "damType": "均质坝",
    "maxHeight": 43.0
  },
  {
    "id": "2-012",
    "name": "茂墩",
    "province": "广东",
    "location": "广东广州市从化区",
    "coordinates": [
      113.587386,
      23.545283
    ],
    "city": "广州市",
    "county": "从化区",
    "basin": "珠江流域",
    "type": "中型",
    "capacity": 1414.0,
    "maxHeight": 29.0
  },
  {
    "id": "2-013",
    "name": "天湖",
    "province": "广东",
    "location": "广东广州市从化区",
    "coordinates": [
      113.587386,
      23.545283
    ],
    "city": "广州市",
    "county": "从化区",
    "basin": "淮河流域",
    "type": "中型",
    "capacity": 1014.0,
    "maxHeight": 39.0
  },
  {
    "id": "2-014",
    "name": "新村",
    "province": "广东",
    "location": "广东河源市龙川县",
    "coordinates": [
      115.256415,
      24.101174
    ],
    "city": "河源市",
    "county": "龙川县",
    "basin": "珠江流域",
    "type": "中型",
    "capacity": 1084.0,
    "damType": "均质坝",
    "maxHeight": 22.85
  },
  {
    "id": "2-015",
    "name": "岩前水库",
    "province": "广东",
    "location": "广东梅州市五华县",
    "coordinates": [
      115.775004,
      23.925424
    ],
    "city": "梅州市",
    "county": "五华县",
    "basin": "珠江流域",
    "type": "中型",
    "capacity": 1863.0,
    "damType": "均质坝",
    "maxHeight": 32.4
  },
  {
    "id": "2-016",
    "name": "河溪",
    "province": "广东",
    "location": "广东汕头市潮阳区",
    "coordinates": [
      116.602602,
      23.262336
    ],
    "city": "汕头市",
    "county": "潮阳区",
    "basin": "珠江流域",
    "type": "中型",
    "capacity": 1793.0,
    "damType": "均质坝",
    "maxHeight": 34.49
  },
  {
    "id": "2-017",
    "name": "石河",
    "province": "广东",
    "location": "广东阳江市江城区",
    "coordinates": [
      111.968909,
      21.859182
    ],
    "city": "阳江市",
    "county": "江城区",
    "basin": "长江流域",
    "type": "中型",
    "capacity": 3258.0,
    "damType": "均质坝",
    "maxHeight": 16.0
  },
  {
    "id": "2-018",
    "name": "江河",
    "province": "广东",
    "location": "广东阳江市阳东区",
    "coordinates": [
      112.011267,
      21.864728
    ],
    "city": "阳江市",
    "county": "阳东区",
    "basin": "珠江流域",
    "type": "中型",
    "capacity": 8806.0,
    "damType": "均质坝",
    "maxHeight": 29.5
  },
  {
    "id": "2-019",
    "name": "新湖",
    "province": "广东",
    "location": "广东阳江市阳西县",
    "coordinates": [
      111.617556,
      21.75367
    ],
    "city": "阳江市",
    "county": "阳西县",
    "basin": "珠江流域",
    "type": "中型",
    "capacity": 3768.0,
    "damType": "均质坝",
    "maxHeight": 18.8
  },
  {
    "id": "2-020",
    "name": "江谷水库",
    "province": "广东",
    "location": "广东肇庆市四会市",
    "coordinates": [
      112.695028,
      23.340324
    ],
    "city": "肇庆市",
    "county": "四会市",
    "basin": "珠江流域",
    "type": "中型",
    "capacity": 7031.0,
    "damType": "均质坝",
    "maxHeight": 40.05
  },
  {
    "id": "2-021",
    "name": "卡达",
    "province": "广西",
    "location": "广西百色市隆林各族自治县",
    "coordinates": [
      105.342363,
      24.774318
    ],
    "city": "百色市",
    "county": "隆林各族自治县",
    "basin": "珠江流域",
    "type": "中型",
    "capacity": 2167.0,
    "damType": "重力坝",
    "maxHeight": 53.62
  },
  {
    "id": "2-022",
    "name": "龙须河",
    "province": "广西",
    "location": "广西百色市田东县",
    "coordinates": [
      107.12426,
      23.600444
    ],
    "city": "百色市",
    "county": "田东县",
    "basin": "珠江流域",
    "type": "中型",
    "capacity": 3332.7,
    "damType": "均质坝",
    "maxHeight": 27.72
  },
  {
    "id": "2-023",
    "name": "浪塘",
    "province": "广西",
    "location": "广西百色市右江区",
    "coordinates": [
      106.615727,
      23.897675
    ],
    "city": "百色市",
    "county": "右江区",
    "basin": "珠江流域",
    "type": "中型",
    "capacity": 1507.0,
    "damType": "均质坝",
    "maxHeight": 35.22
  },
  {
    "id": "2-024",
    "name": "洪潮江",
    "province": "广西",
    "location": "广西北海市合浦县",
    "coordinates": [
      109.200695,
      21.663554
    ],
    "city": "北海市",
    "county": "合浦县",
    "basin": "珠江流域",
    "type": "大型",
    "capacity": 71400.0,
    "damType": "均质坝",
    "maxHeight": 34.8
  },
  {
    "id": "2-025",
    "name": "小江",
    "province": "广西",
    "location": "广西北海市合浦县",
    "coordinates": [
      109.200695,
      21.663554
    ],
    "city": "北海市",
    "county": "合浦县",
    "basin": "珠江流域",
    "type": "大型",
    "capacity": 102500.0,
    "damType": "重力坝",
    "maxHeight": 45.8
  },
  {
    "id": "2-026",
    "name": "小陶",
    "province": "广西",
    "location": "广西防城港市防城区",
    "coordinates": [
      108.358426,
      21.764758
    ],
    "city": "防城港市",
    "county": "防城区",
    "basin": "珠江流域",
    "type": "中型",
    "capacity": 1230.0,
    "damType": "均质坝",
    "maxHeight": 15.0
  },
  {
    "id": "2-027",
    "name": "平合",
    "province": "广西",
    "location": "广西贵港市桂平市",
    "coordinates": [
      110.074668,
      23.382473
    ],
    "city": "贵港市",
    "county": "桂平市",
    "basin": "珠江流域",
    "type": "中型",
    "capacity": 2479.0,
    "damType": "均质坝",
    "maxHeight": 36.55
  },
  {
    "id": "2-028",
    "name": "兰洞",
    "province": "广西",
    "location": "广西桂林市恭城瑶族自治县",
    "coordinates": [
      110.82952,
      24.833612
    ],
    "city": "桂林市",
    "county": "恭城瑶族自治县",
    "basin": "珠江流域",
    "type": "中型",
    "capacity": 3987.49,
    "damType": "均质坝",
    "maxHeight": 42.5
  },
  {
    "id": "2-029",
    "name": "大江",
    "province": "广西",
    "location": "广西桂林市荔浦市",
    "coordinates": [
      110.400149,
      24.497786
    ],
    "city": "桂林市",
    "county": "荔浦市",
    "basin": "珠江流域",
    "type": "中型",
    "capacity": 7517.0,
    "damType": "均质坝",
    "maxHeight": 41.9
  },
  {
    "id": "2-030",
    "name": "金陵",
    "province": "广西",
    "location": "广西桂林市临桂区",
    "coordinates": [
      110.205487,
      25.246257
    ],
    "city": "桂林市",
    "county": "临桂区",
    "basin": "珠江流域",
    "type": "中型",
    "capacity": 1736.0,
    "damType": "均质坝",
    "maxHeight": 22.44
  },
  {
    "id": "2-031",
    "name": "青狮潭",
    "province": "广西",
    "location": "广西桂林市灵川县",
    "coordinates": [
      110.325712,
      25.408541
    ],
    "city": "桂林市",
    "county": "灵川县",
    "basin": "珠江流域",
    "type": "大型",
    "capacity": 60300.0,
    "damType": "均质坝",
    "maxHeight": 60.0
  },
  {
    "id": "2-032",
    "name": "思安江",
    "province": "广西",
    "location": "广西桂林市灵川县",
    "coordinates": [
      110.325712,
      25.408541
    ],
    "city": "桂林市",
    "county": "灵川县",
    "basin": "珠江流域",
    "type": "中型",
    "capacity": 9091.0,
    "damType": "心墙坝",
    "maxHeight": 103.0
  },
  {
    "id": "2-033",
    "name": "灌江",
    "province": "广西",
    "location": "广西桂林市全州县",
    "coordinates": [
      111.072989,
      25.929897
    ],
    "city": "桂林市",
    "county": "全州县",
    "basin": "长江流域",
    "type": "中型",
    "capacity": 3037.0,
    "damType": "支墩坝",
    "maxHeight": 17.94
  },
  {
    "id": "2-034",
    "name": "六坡",
    "province": "广西",
    "location": "广西河池市宜州区",
    "coordinates": [
      108.653965,
      24.492193
    ],
    "city": "河池市",
    "county": "宜州区",
    "basin": "珠江流域",
    "type": "中型",
    "capacity": 3292.0,
    "damType": "均质坝",
    "maxHeight": 21.27
  },
  {
    "id": "2-035",
    "name": "龟石",
    "province": "广西",
    "location": "广西贺州市富川瑶族自治县",
    "coordinates": [
      111.277228,
      24.81896
    ],
    "city": "贺州市",
    "county": "富川瑶族自治县",
    "basin": "珠江流域",
    "type": "大型",
    "capacity": 47800.0,
    "damType": "支墩坝",
    "maxHeight": 42.7
  },
  {
    "id": "2-036",
    "name": "长村",
    "province": "广西",
    "location": "广西来宾市象州县",
    "coordinates": [
      109.684555,
      23.959824
    ],
    "city": "来宾市",
    "county": "象州县",
    "basin": "珠江流域",
    "type": "中型",
    "capacity": 1384.0,
    "damType": "均质坝",
    "maxHeight": 17.3
  },
  {
    "id": "2-037",
    "name": "高境",
    "province": "广西",
    "location": "广西来宾市兴宾区",
    "coordinates": [
      109.230541,
      23.732926
    ],
    "city": "来宾市",
    "county": "兴宾区",
    "basin": "珠江流域",
    "type": "中型",
    "capacity": 1257.0,
    "damType": "均质坝",
    "maxHeight": 9.9
  },
  {
    "id": "2-038",
    "name": "莲花",
    "province": "广西",
    "location": "广西来宾市兴宾区",
    "coordinates": [
      109.230541,
      23.732926
    ],
    "city": "来宾市",
    "county": "兴宾区",
    "basin": "珠江流域",
    "type": "中型",
    "capacity": 1175.0,
    "damType": "均质坝",
    "maxHeight": 8.82
  },
  {
    "id": "2-039",
    "name": "清潭",
    "province": "广西",
    "location": "广西来宾市兴宾区",
    "coordinates": [
      109.230541,
      23.732926
    ],
    "city": "来宾市",
    "county": "兴宾区",
    "basin": "珠江流域",
    "type": "中型",
    "capacity": 1410.0,
    "damType": "均质坝",
    "maxHeight": 25.0
  },
  {
    "id": "2-040",
    "name": "樟村",
    "province": "广西",
    "location": "广西来宾市兴宾区",
    "coordinates": [
      109.230541,
      23.732926
    ],
    "city": "来宾市",
    "county": "兴宾区",
    "basin": "珠江流域",
    "type": "中型",
    "capacity": 1170.0,
    "damType": "均质坝",
    "maxHeight": 17.7
  },
  {
    "id": "2-041",
    "name": "广西石门",
    "province": "广西",
    "location": "广西柳州市融安县",
    "coordinates": [
      109.403621,
      25.214703
    ],
    "city": "柳州市",
    "county": "融安县",
    "basin": "珠江流域",
    "type": "中型",
    "capacity": 4538.0,
    "damType": "支墩坝",
    "maxHeight": 53.8
  },
  {
    "id": "2-042",
    "name": "泗维河",
    "province": "广西",
    "location": "广西柳州市融安县",
    "coordinates": [
      109.403621,
      25.214703
    ],
    "city": "柳州市",
    "county": "融安县",
    "basin": "长江流域",
    "type": "中型",
    "capacity": 6882.0,
    "maxHeight": 40.5
  },
  {
    "id": "2-043",
    "name": "湴蓬水库",
    "province": "广西",
    "location": "广西南宁市横州市",
    "coordinates": [
      108.320004,
      22.82402
    ],
    "city": "南宁市",
    "county": "横州市",
    "basin": "珠江流域",
    "type": "中型",
    "capacity": 1319.0,
    "damType": "重力坝",
    "maxHeight": 18.58
  },
  {
    "id": "2-044",
    "name": "青年水库",
    "province": "广西",
    "location": "广西南宁市横州市",
    "coordinates": [
      108.320004,
      22.82402
    ],
    "city": "南宁市",
    "county": "横州市",
    "basin": "珠江流域",
    "type": "中型",
    "capacity": 1479.0,
    "damType": "重力坝",
    "maxHeight": 10.0
  },
  {
    "id": "2-045",
    "name": "大王滩水库",
    "province": "广西",
    "location": "广西南宁市良庆区",
    "coordinates": [
      108.322102,
      22.75909
    ],
    "city": "南宁市",
    "county": "良庆区",
    "basin": "珠江流域",
    "type": "大型",
    "capacity": 63800.0,
    "damType": "均质坝",
    "maxHeight": 38.3
  },
  {
    "id": "2-046",
    "name": "布良水库",
    "province": "广西",
    "location": "广西南宁市隆安县",
    "coordinates": [
      107.688661,
      23.174763
    ],
    "city": "南宁市",
    "county": "隆安县",
    "basin": "珠江流域",
    "type": "中型",
    "capacity": 1636.0,
    "damType": "均质坝",
    "maxHeight": 30.92
  },
  {
    "id": "2-047",
    "name": "那降水库",
    "province": "广西",
    "location": "广西南宁市隆安县",
    "coordinates": [
      107.688661,
      23.174763
    ],
    "city": "南宁市",
    "county": "隆安县",
    "basin": "珠江流域",
    "type": "中型",
    "capacity": 2717.0,
    "damType": "均质坝",
    "maxHeight": 48.5
  },
  {
    "id": "2-048",
    "name": "大朗水库",
    "province": "广西",
    "location": "广西南宁市马山县",
    "coordinates": [
      108.172903,
      23.711758
    ],
    "city": "南宁市",
    "county": "马山县",
    "basin": "珠江流域",
    "type": "中型",
    "capacity": 2689.0,
    "damType": "均质坝",
    "maxHeight": 40.13
  },
  {
    "id": "2-049",
    "name": "青龙江水库",
    "province": "广西",
    "location": "广西南宁市青秀区",
    "coordinates": [
      108.346113,
      22.816614
    ],
    "city": "南宁市",
    "county": "青秀区",
    "basin": "珠江流域",
    "type": "中型",
    "capacity": 2539.0,
    "damType": "其他",
    "maxHeight": 14.7
  },
  {
    "id": "2-050",
    "name": "土桥",
    "province": "广西",
    "location": "广西宜州市石别镇",
    "coordinates": [
      108.64,
      24.48
    ],
    "city": "宜州市",
    "county": "石别镇",
    "basin": "长江流域",
    "type": "中型",
    "capacity": 3600.0,
    "damType": "均质坝",
    "maxHeight": 23.0
  },
  {
    "id": "2-051",
    "name": "兴西湖水库",
    "province": "贵州",
    "location": "贵州黔西南布依族苗族自治州兴义市",
    "coordinates": [
      104.897982,
      25.088599
    ],
    "city": "黔西南布依族苗族自治州",
    "county": "兴义市",
    "basin": "珠江流域",
    "type": "中型",
    "capacity": 2730.0,
    "damType": "均质坝",
    "maxHeight": 42.1
  },
  {
    "id": "2-052",
    "name": "坡生水库",
    "province": "海南",
    "location": "海南直辖县白沙黎族自治县",
    "coordinates": [
      110.33119,
      20.031971
    ],
    "city": "直辖县",
    "county": "白沙黎族自治县",
    "basin": "珠江流域",
    "type": "中型",
    "capacity": 1840.0,
    "maxHeight": 25.5
  },
  {
    "id": "2-053",
    "name": "尧龙水库",
    "province": "海南",
    "location": "海南直辖县临高县",
    "coordinates": [
      110.33119,
      20.031971
    ],
    "city": "直辖县",
    "county": "临高县",
    "basin": "珠江流域",
    "type": "中型",
    "capacity": 6277.0,
    "maxHeight": 27.9
  },
  {
    "id": "2-054",
    "name": "跃进水库",
    "province": "海南",
    "location": "海南直辖县临高县",
    "coordinates": [
      110.33119,
      20.031971
    ],
    "city": "直辖县",
    "county": "临高县",
    "basin": "珠江流域",
    "type": "中型",
    "capacity": 4970.0,
    "maxHeight": 26.1
  },
  {
    "id": "2-055",
    "name": "加坦水库",
    "province": "海南",
    "location": "海南直辖县万宁市",
    "coordinates": [
      110.33119,
      20.031971
    ],
    "city": "直辖县",
    "county": "万宁市",
    "basin": "珠江流域",
    "type": "中型",
    "capacity": 2660.0,
    "maxHeight": 13.0
  },
  {
    "id": "2-056",
    "name": "青天河水库",
    "province": "河南",
    "location": "河南焦作市博爱县",
    "coordinates": [
      113.069313,
      35.170351
    ],
    "city": "焦作市",
    "county": "博爱县",
    "basin": "黄河流域",
    "type": "中型",
    "capacity": 2070.0,
    "damType": "支墩坝",
    "maxHeight": 76.0
  },
  {
    "id": "2-057",
    "name": "群英水库",
    "province": "河南",
    "location": "河南焦作市修武县",
    "coordinates": [
      113.447465,
      35.229923
    ],
    "city": "焦作市",
    "county": "修武县",
    "basin": "海河流域",
    "type": "中型",
    "capacity": 1743.0,
    "damType": "支墩坝",
    "maxHeight": 100.5
  },
  {
    "id": "2-058",
    "name": "龙潭河水库",
    "province": "河南",
    "location": "河南南阳市桐柏县",
    "coordinates": [
      113.406059,
      32.367153
    ],
    "city": "南阳市",
    "county": "桐柏县",
    "basin": "长江流域",
    "type": "中型",
    "capacity": 1044.0,
    "damType": "均质坝",
    "maxHeight": 46.0
  },
  {
    "id": "2-059",
    "name": "龙王沟水库",
    "province": "河南",
    "location": "河南南阳市卧龙区",
    "coordinates": [
      112.528789,
      32.989877
    ],
    "city": "南阳市",
    "county": "卧龙区",
    "basin": "长江流域",
    "type": "中型",
    "capacity": 6120.0,
    "damType": "均质坝",
    "maxHeight": 18.3
  },
  {
    "id": "2-060",
    "name": "孤石滩水库",
    "province": "河南",
    "location": "河南平顶山市叶县",
    "coordinates": [
      113.358298,
      33.621252
    ],
    "city": "平顶山市",
    "county": "叶县",
    "basin": "淮河流域",
    "type": "大型",
    "capacity": 17800.0,
    "damType": "均质坝",
    "maxHeight": 31.0
  },
  {
    "id": "2-061",
    "name": "马楼水库",
    "province": "河南",
    "location": "河南商丘市虞城县",
    "coordinates": [
      115.863811,
      34.399634
    ],
    "city": "商丘市",
    "county": "虞城县",
    "basin": "淮河流域",
    "type": "中型",
    "capacity": 2569.0,
    "damType": "均质坝",
    "maxHeight": 9.54
  },
  {
    "id": "2-062",
    "name": "蟒河口水库",
    "province": "河南",
    "location": "河南省直管济源市",
    "coordinates": [
      113.665412,
      34.757975
    ],
    "city": "省直管",
    "county": "济源市",
    "basin": "黄河流域",
    "type": "中型",
    "capacity": 1094.0,
    "damType": "拱坝",
    "maxHeight": 77.6
  },
  {
    "id": "2-063",
    "name": "铁佛寺水库",
    "province": "河南",
    "location": "河南信阳市商城县",
    "coordinates": [
      115.406297,
      31.799982
    ],
    "city": "信阳市",
    "county": "商城县",
    "basin": "松花江及辽河流域",
    "type": "中型",
    "capacity": 3648.0,
    "damType": "均质坝",
    "maxHeight": 26.5
  },
  {
    "id": "2-064",
    "name": "佛耳岗水库",
    "province": "河南",
    "location": "河南许昌市长葛市",
    "coordinates": [
      113.768912,
      34.219257
    ],
    "city": "许昌市",
    "county": "长葛市",
    "basin": "淮河流域",
    "type": "中型",
    "capacity": 4100.0,
    "damType": "均质坝",
    "maxHeight": 14.1
  },
  {
    "id": "2-065",
    "name": "石头河",
    "province": "黑龙江",
    "location": "黑龙江鸡西市虎林市",
    "coordinates": [
      132.973881,
      45.767985
    ],
    "city": "鸡西市",
    "county": "虎林市",
    "basin": "长江流域",
    "type": "中型",
    "capacity": 1753.41,
    "damType": "均质坝",
    "maxHeight": 13.0
  },
  {
    "id": "2-066",
    "name": "西南岔",
    "province": "黑龙江",
    "location": "黑龙江鸡西市虎林市",
    "coordinates": [
      132.973881,
      45.767985
    ],
    "city": "鸡西市",
    "county": "虎林市",
    "basin": "长江流域",
    "type": "中型",
    "capacity": 2784.0,
    "damType": "均质坝",
    "maxHeight": 12.0
  },
  {
    "id": "2-067",
    "name": "青年",
    "province": "黑龙江",
    "location": "黑龙江鸡西市密山市",
    "coordinates": [
      131.874137,
      45.54725
    ],
    "city": "鸡西市",
    "county": "密山市",
    "basin": "松花江及辽河流域",
    "type": "大型",
    "capacity": 40400.0,
    "damType": "均质坝",
    "maxHeight": 15.2
  },
  {
    "id": "2-068",
    "name": "明山",
    "province": "湖北",
    "location": "湖北黄冈市麻城市",
    "coordinates": [
      115.02541,
      31.177906
    ],
    "city": "黄冈市",
    "county": "麻城市",
    "basin": "长江流域",
    "capacity": 0.0,
    "damType": "均质坝",
    "maxHeight": 35.7
  },
  {
    "id": "2-069",
    "name": "白莲河",
    "province": "湖北",
    "location": "湖北黄冈市浠水县",
    "coordinates": [
      115.26344,
      30.454837
    ],
    "city": "黄冈市",
    "county": "浠水县",
    "basin": "长江流域",
    "type": "大型",
    "capacity": 122800.0,
    "damType": "心墙坝",
    "maxHeight": 69.0
  },
  {
    "id": "2-070",
    "name": "白洋河",
    "province": "湖北",
    "location": "湖北黄冈市浠水县",
    "coordinates": [
      115.26344,
      30.454837
    ],
    "city": "黄冈市",
    "county": "浠水县",
    "basin": "长江流域",
    "type": "中型",
    "capacity": 2271.0,
    "maxHeight": 32.17
  },
  {
    "id": "2-071",
    "name": "张家咀",
    "province": "湖北",
    "location": "湖北黄冈市英山县",
    "coordinates": [
      115.67753,
      30.735794
    ],
    "city": "黄冈市",
    "county": "英山县",
    "basin": "长江流域",
    "type": "大型",
    "capacity": 11040.0,
    "damType": "均质坝",
    "maxHeight": 72.0
  },
  {
    "id": "2-072",
    "name": "小青山",
    "province": "湖北",
    "location": "湖北黄石市阳新县",
    "coordinates": [
      115.212883,
      29.841572
    ],
    "city": "黄石市",
    "county": "阳新县",
    "basin": "长江流域",
    "type": "中型",
    "capacity": 1149.0,
    "damType": "均质坝",
    "maxHeight": 46.5
  },
  {
    "id": "2-073",
    "name": "仙居河",
    "province": "湖北",
    "location": "湖北荆门市东宝区",
    "coordinates": [
      112.204804,
      31.033461
    ],
    "city": "荆门市",
    "county": "东宝区",
    "basin": "长江流域",
    "type": "中型",
    "capacity": 4288.3,
    "damType": "均质坝",
    "maxHeight": 38.24
  },
  {
    "id": "2-074",
    "name": "漳河水库",
    "province": "湖北",
    "location": "湖北荆门市东宝区",
    "coordinates": [
      112.204804,
      31.033461
    ],
    "city": "荆门市",
    "county": "东宝区",
    "basin": "长江流域",
    "type": "大型",
    "capacity": 211300.0,
    "damType": "均质坝",
    "maxHeight": 67.0
  },
  {
    "id": "2-075",
    "name": "高关水库",
    "province": "湖北",
    "location": "湖北荆门市京山市",
    "coordinates": [
      113.114595,
      31.022458
    ],
    "city": "荆门市",
    "county": "京山市",
    "basin": "长江流域",
    "type": "大型",
    "capacity": 20108.0,
    "damType": "其他",
    "maxHeight": 45.0
  },
  {
    "id": "2-076",
    "name": "刘畈水库",
    "province": "湖北",
    "location": "湖北荆门市京山市",
    "coordinates": [
      113.114595,
      31.022458
    ],
    "city": "荆门市",
    "county": "京山市",
    "basin": "长江流域",
    "type": "中型",
    "capacity": 5857.0,
    "damType": "均质坝",
    "maxHeight": 38.4
  },
  {
    "id": "2-077",
    "name": "石龙水库",
    "province": "湖北",
    "location": "湖北荆门市京山市",
    "coordinates": [
      113.114595,
      31.022458
    ],
    "city": "荆门市",
    "county": "京山市",
    "basin": "长江流域",
    "type": "中型",
    "capacity": 8386.0,
    "damType": "均质坝",
    "maxHeight": 29.4
  },
  {
    "id": "2-078",
    "name": "郑家河水库",
    "province": "湖北",
    "location": "湖北荆门市京山市",
    "coordinates": [
      113.114595,
      31.022458
    ],
    "city": "荆门市",
    "county": "京山市",
    "basin": "长江流域",
    "type": "大型",
    "capacity": 17100.0,
    "damType": "均质坝",
    "maxHeight": 31.1
  },
  {
    "id": "2-079",
    "name": "红岩一级电站建设",
    "province": "湖北",
    "location": "湖北十堰市竹溪县",
    "coordinates": [
      109.717196,
      32.315342
    ],
    "city": "十堰市",
    "county": "竹溪县",
    "basin": "长江流域",
    "type": "中型",
    "capacity": 3670.0,
    "damType": "心墙坝",
    "maxHeight": 77.2
  },
  {
    "id": "2-080",
    "name": "白果河",
    "province": "湖北",
    "location": "湖北随州市曾都区",
    "coordinates": [
      113.374519,
      31.717521
    ],
    "city": "随州市",
    "county": "曾都区",
    "basin": "长江流域",
    "type": "中型",
    "capacity": 4622.0,
    "damType": "均质坝",
    "maxHeight": 27.0
  },
  {
    "id": "2-081",
    "name": "封江口水库",
    "province": "湖北",
    "location": "湖北随州市随县",
    "coordinates": [
      113.301384,
      31.854246
    ],
    "city": "随州市",
    "county": "随县",
    "basin": "长江流域",
    "type": "大型",
    "capacity": 25200.0,
    "damType": "其他",
    "maxHeight": 33.8
  },
  {
    "id": "2-082",
    "name": "青山水库",
    "province": "湖北",
    "location": "湖北咸宁市崇阳县",
    "coordinates": [
      114.049958,
      29.54101
    ],
    "city": "咸宁市",
    "county": "崇阳县",
    "basin": "长江流域",
    "capacity": 4.3,
    "damType": "均质坝",
    "maxHeight": 62.55
  },
  {
    "id": "2-083",
    "name": "左港",
    "province": "湖北",
    "location": "湖北咸宁市通城县",
    "coordinates": [
      113.814131,
      29.246076
    ],
    "city": "咸宁市",
    "county": "通城县",
    "basin": "长江流域",
    "type": "中型",
    "capacity": 1830.0,
    "damType": "均质坝",
    "maxHeight": 26.64
  },
  {
    "id": "2-084",
    "name": "孟桥川水库",
    "province": "湖北",
    "location": "湖北襄阳市老河口市",
    "coordinates": [
      111.675732,
      32.385438
    ],
    "city": "襄阳市",
    "county": "老河口市",
    "basin": "长江流域",
    "type": "大型",
    "capacity": 11033.0,
    "damType": "重力坝",
    "maxHeight": 33.6
  },
  {
    "id": "2-085",
    "name": "唐沟等三座中型水库",
    "province": "湖北",
    "location": "湖北襄阳市老河口市",
    "coordinates": [
      111.675732,
      32.385438
    ],
    "city": "襄阳市",
    "county": "老河口市",
    "basin": "长江流域",
    "type": "中型",
    "capacity": 1408.0,
    "damType": "重力坝",
    "maxHeight": 26.7
  },
  {
    "id": "2-086",
    "name": "石门集",
    "province": "湖北",
    "location": "湖北襄阳市南漳县",
    "coordinates": [
      111.844424,
      31.77692
    ],
    "city": "襄阳市",
    "county": "南漳县",
    "basin": "长江流域",
    "type": "大型",
    "capacity": 15746.0,
    "damType": "均质坝",
    "maxHeight": 56.0
  },
  {
    "id": "2-087",
    "name": "云台山",
    "province": "湖北",
    "location": "湖北襄阳市南漳县",
    "coordinates": [
      111.844424,
      31.77692
    ],
    "city": "襄阳市",
    "county": "南漳县",
    "basin": "长江流域",
    "type": "大型",
    "capacity": 12120.0,
    "damType": "均质坝",
    "maxHeight": 53.3
  },
  {
    "id": "2-088",
    "name": "红水河",
    "province": "湖北",
    "location": "湖北襄阳市襄州区",
    "coordinates": [
      112.197378,
      32.085517
    ],
    "city": "襄阳市",
    "county": "襄州区",
    "basin": "长江流域",
    "type": "大型",
    "capacity": 10360.0,
    "damType": "均质坝",
    "maxHeight": 29.5
  },
  {
    "id": "2-089",
    "name": "西排子河",
    "province": "湖北",
    "location": "湖北襄阳市襄州区",
    "coordinates": [
      112.197378,
      32.085517
    ],
    "city": "襄阳市",
    "county": "襄州区",
    "basin": "黄河流域",
    "type": "大型",
    "capacity": 22040.0,
    "damType": "均质坝",
    "maxHeight": 30.1
  },
  {
    "id": "2-090",
    "name": "马鞍山",
    "province": "湖北",
    "location": "湖北襄阳市枣阳市",
    "coordinates": [
      112.765268,
      32.123083
    ],
    "city": "襄阳市",
    "county": "枣阳市",
    "basin": "长江流域",
    "type": "中型",
    "capacity": 1725.0,
    "damType": "均质坝",
    "maxHeight": 29.15
  },
  {
    "id": "2-091",
    "name": "沙河",
    "province": "湖北",
    "location": "湖北襄阳市枣阳市",
    "coordinates": [
      112.765268,
      32.123083
    ],
    "city": "襄阳市",
    "county": "枣阳市",
    "basin": "长江流域",
    "type": "中型",
    "capacity": 7050.0,
    "damType": "均质坝",
    "maxHeight": 23.4
  },
  {
    "id": "2-092",
    "name": "短港",
    "province": "湖北",
    "location": "湖北孝感市应城市",
    "coordinates": [
      113.573842,
      30.939038
    ],
    "city": "孝感市",
    "county": "应城市",
    "basin": "长江流域",
    "type": "中型",
    "capacity": 6989.0,
    "damType": "均质坝",
    "maxHeight": 20.1
  },
  {
    "id": "2-093",
    "name": "西北口水库",
    "province": "湖北",
    "location": "湖北宜昌市夷陵区",
    "coordinates": [
      111.326747,
      30.770199
    ],
    "city": "宜昌市",
    "county": "夷陵区",
    "basin": "黄河流域",
    "type": "大型",
    "capacity": 19627.0,
    "damType": "心墙坝",
    "maxHeight": 95.0
  },
  {
    "id": "2-094",
    "name": "鲁家港",
    "province": "湖北",
    "location": "湖北宜昌市枝江市",
    "coordinates": [
      111.751799,
      30.425364
    ],
    "city": "宜昌市",
    "county": "枝江市",
    "basin": "长江流域",
    "type": "中型",
    "capacity": 4216.0,
    "damType": "其他",
    "maxHeight": 26.7
  },
  {
    "id": "2-095",
    "name": "山门",
    "province": "湖南",
    "location": "湖南常德市澧县",
    "coordinates": [
      111.761682,
      29.64264
    ],
    "city": "常德市",
    "county": "澧县",
    "basin": "长江流域",
    "type": "中型",
    "capacity": 9201.0,
    "damType": "均质坝",
    "maxHeight": 50.8
  },
  {
    "id": "2-096",
    "name": "群英",
    "province": "湖南",
    "location": "湖南常德市临澧县",
    "coordinates": [
      111.645602,
      29.443217
    ],
    "city": "常德市",
    "county": "临澧县",
    "basin": "长江流域",
    "type": "中型",
    "capacity": 2040.0,
    "damType": "均质坝",
    "maxHeight": 14.2
  },
  {
    "id": "2-097",
    "name": "双红",
    "province": "湖南",
    "location": "湖南常德市石门县",
    "coordinates": [
      111.379087,
      29.584703
    ],
    "city": "常德市",
    "county": "石门县",
    "basin": "珠江流域",
    "type": "中型",
    "capacity": 1280.0,
    "damType": "均质坝",
    "maxHeight": 28.53
  },
  {
    "id": "2-098",
    "name": "方元",
    "province": "湖南",
    "location": "湖南郴州市桂阳县",
    "coordinates": [
      112.734466,
      25.737447
    ],
    "city": "郴州市",
    "county": "桂阳县",
    "basin": "长江流域",
    "type": "中型",
    "capacity": 1836.0,
    "damType": "均质坝",
    "maxHeight": 23.3
  },
  {
    "id": "2-099",
    "name": "方元监测设施建设",
    "province": "湖南",
    "location": "湖南郴州市桂阳县",
    "coordinates": [
      112.734466,
      25.737447
    ],
    "city": "郴州市",
    "county": "桂阳县",
    "basin": "长江流域",
    "type": "中型",
    "capacity": 1836.0,
    "damType": "均质坝",
    "maxHeight": 23.3
  },
  {
    "id": "2-100",
    "name": "贤江",
    "province": "湖南",
    "location": "湖南郴州市桂阳县",
    "coordinates": [
      112.734466,
      25.737447
    ],
    "city": "郴州市",
    "county": "桂阳县",
    "basin": "长江流域",
    "type": "中型",
    "capacity": 1130.0,
    "damType": "均质坝",
    "maxHeight": 55.1
  },
  {
    "id": "2-101",
    "name": "万水洞",
    "province": "湖南",
    "location": "湖南郴州市临武县",
    "coordinates": [
      112.564589,
      25.279119
    ],
    "city": "郴州市",
    "county": "临武县",
    "basin": "长江流域",
    "type": "中型",
    "capacity": 1023.7,
    "damType": "均质坝",
    "maxHeight": 30.8
  },
  {
    "id": "2-102",
    "name": "大溪水库",
    "province": "湖南",
    "location": "湖南怀化市会同县",
    "coordinates": [
      109.720785,
      26.870789
    ],
    "city": "怀化市",
    "county": "会同县",
    "basin": "长江流域",
    "type": "中型",
    "capacity": 1046.0,
    "damType": "均质坝",
    "maxHeight": 43.7
  },
  {
    "id": "2-103",
    "name": "马颈坳电站",
    "province": "湖南",
    "location": "湖南怀化市麻阳苗族自治县",
    "coordinates": [
      109.802807,
      27.865991
    ],
    "city": "怀化市",
    "county": "麻阳苗族自治县",
    "basin": "长江流域",
    "type": "中型",
    "capacity": 2710.0,
    "damType": "支墩坝",
    "maxHeight": 10.3
  },
  {
    "id": "2-104",
    "name": "姚来滩",
    "province": "湖南",
    "location": "湖南怀化市通道侗族自治县",
    "coordinates": [
      109.783359,
      26.158349
    ],
    "city": "怀化市",
    "county": "通道侗族自治县",
    "basin": "长江流域",
    "type": "中型",
    "capacity": 2080.0,
    "damType": "重力坝",
    "maxHeight": 6.5
  },
  {
    "id": "2-105",
    "name": "杉木塘",
    "province": "湖南",
    "location": "湖南怀化市溆浦县",
    "coordinates": [
      110.593373,
      27.903802
    ],
    "city": "怀化市",
    "county": "溆浦县",
    "basin": "长江流域",
    "type": "中型",
    "capacity": 1078.0,
    "damType": "均质坝",
    "maxHeight": 37.8
  },
  {
    "id": "2-106",
    "name": "深子湖水库",
    "province": "湖南",
    "location": "湖南怀化市溆浦县",
    "coordinates": [
      110.593373,
      27.903802
    ],
    "city": "怀化市",
    "county": "溆浦县",
    "basin": "长江流域",
    "type": "中型",
    "capacity": 7130.0,
    "damType": "均质坝",
    "maxHeight": 68.54
  },
  {
    "id": "2-107",
    "name": "周头水库",
    "province": "湖南",
    "location": "湖南娄底市冷水江市",
    "coordinates": [
      111.434674,
      27.685759
    ],
    "city": "娄底市",
    "county": "冷水江市",
    "basin": "长江流域",
    "type": "中型",
    "capacity": 1040.0,
    "maxHeight": 32.0
  },
  {
    "id": "2-108",
    "name": "白马水库",
    "province": "湖南",
    "location": "湖南娄底市涟源市",
    "coordinates": [
      111.670847,
      27.692301
    ],
    "city": "娄底市",
    "county": "涟源市",
    "basin": "长江流域",
    "type": "中型",
    "capacity": 6250.0,
    "maxHeight": 28.5
  },
  {
    "id": "2-109",
    "name": "大江口水库",
    "province": "湖南",
    "location": "湖南娄底市涟源市",
    "coordinates": [
      111.670847,
      27.692301
    ],
    "city": "娄底市",
    "county": "涟源市",
    "basin": "长江流域",
    "type": "中型",
    "capacity": 4430.0,
    "damType": "支墩坝",
    "maxHeight": 82.0
  },
  {
    "id": "2-110",
    "name": "燕霄水库",
    "province": "湖南",
    "location": "湖南娄底市双峰县",
    "coordinates": [
      112.198245,
      27.459126
    ],
    "city": "娄底市",
    "county": "双峰县",
    "basin": "长江流域",
    "type": "中型",
    "capacity": 1083.0,
    "damType": "均质坝",
    "maxHeight": 44.2
  },
  {
    "id": "2-111",
    "name": "车田江水库",
    "province": "湖南",
    "location": "湖南娄底市新化县",
    "coordinates": [
      111.306747,
      27.737456
    ],
    "city": "娄底市",
    "county": "新化县",
    "basin": "长江流域",
    "type": "大型",
    "capacity": 12750.0,
    "maxHeight": 68.8
  },
  {
    "id": "2-112",
    "name": "大业冲",
    "province": "湖南",
    "location": "湖南邵阳市洞口县",
    "coordinates": [
      110.579212,
      27.062286
    ],
    "city": "邵阳市",
    "county": "洞口县",
    "basin": "长江流域",
    "type": "中型",
    "capacity": 2078.0,
    "maxHeight": 30.7
  },
  {
    "id": "2-113",
    "name": "龙木坪",
    "province": "湖南",
    "location": "湖南邵阳市洞口县",
    "coordinates": [
      110.579212,
      27.062286
    ],
    "city": "邵阳市",
    "county": "洞口县",
    "basin": "长江流域",
    "type": "中型",
    "capacity": 3840.0,
    "maxHeight": 77.0
  },
  {
    "id": "2-114",
    "name": "三都",
    "province": "湖南",
    "location": "湖南邵阳市邵东市",
    "coordinates": [
      111.743168,
      27.257273
    ],
    "city": "邵阳市",
    "county": "邵东市",
    "basin": "长江流域",
    "type": "中型",
    "capacity": 1189.0,
    "damType": "均质坝",
    "maxHeight": 28.5
  },
  {
    "id": "2-115",
    "name": "长潭",
    "province": "湖南",
    "location": "湖南湘西土家族苗族自治州保靖县",
    "coordinates": [
      109.651445,
      28.709605
    ],
    "city": "湘西土家族苗族自治州",
    "county": "保靖县",
    "basin": "长江流域",
    "type": "中型",
    "capacity": 1474.0,
    "damType": "重力坝",
    "maxHeight": 43.0
  },
  {
    "id": "2-116",
    "name": "龙塘河",
    "province": "湖南",
    "location": "湖南湘西土家族苗族自治州凤凰县",
    "coordinates": [
      109.599191,
      27.948308
    ],
    "city": "湘西土家族苗族自治州",
    "county": "凤凰县",
    "basin": "长江流域",
    "type": "中型",
    "capacity": 2850.0,
    "damType": "均质坝",
    "maxHeight": 47.6
  },
  {
    "id": "2-117",
    "name": "长潭岗",
    "province": "湖南",
    "location": "湖南湘西土家族苗族自治州凤凰县",
    "coordinates": [
      109.599191,
      27.948308
    ],
    "city": "湘西土家族苗族自治州",
    "county": "凤凰县",
    "basin": "长江流域",
    "type": "中型",
    "capacity": 9970.0,
    "damType": "支墩坝",
    "maxHeight": 87.6
  },
  {
    "id": "2-118",
    "name": "岩门溪",
    "province": "湖南",
    "location": "湖南湘西土家族苗族自治州泸溪县",
    "coordinates": [
      110.214428,
      28.214516
    ],
    "city": "湘西土家族苗族自治州",
    "county": "泸溪县",
    "basin": "长江流域",
    "type": "中型",
    "capacity": 2406.0,
    "damType": "均质坝",
    "maxHeight": 44.26
  },
  {
    "id": "2-119",
    "name": "松柏",
    "province": "湖南",
    "location": "湖南湘西土家族苗族自治州永顺县",
    "coordinates": [
      109.853292,
      28.998068
    ],
    "city": "湘西土家族苗族自治州",
    "county": "永顺县",
    "basin": "黄河流域",
    "type": "中型",
    "capacity": 1271.33,
    "damType": "均质坝",
    "maxHeight": 31.64
  },
  {
    "id": "2-120",
    "name": "廊洞",
    "province": "湖南",
    "location": "湖南永州市道县",
    "coordinates": [
      111.591614,
      25.518444
    ],
    "city": "永州市",
    "county": "道县",
    "basin": "长江流域",
    "type": "中型",
    "capacity": 1012.1,
    "damType": "其他",
    "maxHeight": 33.0
  },
  {
    "id": "2-121",
    "name": "岭口水库",
    "province": "湖南",
    "location": "湖南永州市冷水滩区",
    "coordinates": [
      111.607156,
      26.434364
    ],
    "city": "永州市",
    "county": "冷水滩区",
    "basin": "长江流域",
    "type": "中型",
    "capacity": 1185.2,
    "damType": "均质坝",
    "maxHeight": 47.0
  },
  {
    "id": "2-122",
    "name": "内下",
    "province": "湖南",
    "location": "湖南永州市祁阳县",
    "coordinates": [
      111.85734,
      26.585929
    ],
    "city": "永州市",
    "county": "祁阳县",
    "basin": "长江流域",
    "type": "中型",
    "capacity": 6923.0,
    "damType": "支墩坝",
    "maxHeight": 76.0
  },
  {
    "id": "2-123",
    "name": "立新水库",
    "province": "湖南",
    "location": "湖南永州市新田县",
    "coordinates": [
      112.220341,
      25.906927
    ],
    "city": "永州市",
    "county": "新田县",
    "basin": "长江流域",
    "type": "中型",
    "capacity": 1050.0,
    "damType": "均质坝",
    "maxHeight": 23.51
  },
  {
    "id": "2-124",
    "name": "团湾",
    "province": "湖南",
    "location": "湖南岳阳市临湘市",
    "coordinates": [
      113.450809,
      29.471594
    ],
    "city": "岳阳市",
    "county": "临湘市",
    "basin": "长江流域",
    "type": "中型",
    "capacity": 4150.0,
    "maxHeight": 56.0
  },
  {
    "id": "2-125",
    "name": "赵家垭",
    "province": "湖南",
    "location": "湖南张家界市慈利县",
    "coordinates": [
      111.132702,
      29.423876
    ],
    "city": "张家界市",
    "county": "慈利县",
    "basin": "长江流域",
    "type": "中型",
    "capacity": 6167.0,
    "damType": "心墙坝",
    "maxHeight": 53.5
  },
  {
    "id": "2-126",
    "name": "庄塔",
    "province": "湖南",
    "location": "湖南张家界市慈利县",
    "coordinates": [
      111.132702,
      29.423876
    ],
    "city": "张家界市",
    "county": "慈利县",
    "basin": "长江流域",
    "type": "中型",
    "capacity": 1956.0,
    "damType": "均质坝",
    "maxHeight": 53.0
  },
  {
    "id": "2-127",
    "name": "茅溪建设",
    "province": "湖南",
    "location": "湖南张家界市永定区",
    "coordinates": [
      116.732691,
      24.720442
    ],
    "city": "张家界市",
    "county": "永定区",
    "basin": "长江流域",
    "type": "中型",
    "capacity": 5630.0,
    "damType": "支墩坝",
    "maxHeight": 57.1
  },
  {
    "id": "2-128",
    "name": "白云山",
    "province": "江西",
    "location": "江西吉安市青原区（原吉安县）",
    "coordinates": [
      114.986373,
      27.111699
    ],
    "city": "吉安市",
    "county": "青原区（原吉安县）",
    "basin": "长江流域",
    "type": "大型",
    "capacity": 10769.0,
    "damType": "支墩坝",
    "maxHeight": 48.0
  },
  {
    "id": "2-129",
    "name": "安村",
    "province": "江西",
    "location": "江西吉安市遂川县",
    "coordinates": [
      114.51689,
      26.323705
    ],
    "city": "吉安市",
    "county": "遂川县",
    "basin": "长江流域",
    "type": "中型",
    "capacity": 1965.0,
    "damType": "其他",
    "maxHeight": 67.0
  },
  {
    "id": "2-130",
    "name": "共产主义",
    "province": "江西",
    "location": "江西景德镇市乐平市",
    "coordinates": [
      117.129376,
      28.967361
    ],
    "city": "景德镇市",
    "county": "乐平市",
    "basin": "长江流域",
    "type": "大型",
    "capacity": 14370.0,
    "damType": "均质坝",
    "maxHeight": 34.2
  },
  {
    "id": "2-131",
    "name": "高泉",
    "province": "江西",
    "location": "江西九江市瑞昌市",
    "coordinates": [
      115.669081,
      29.676599
    ],
    "city": "九江市",
    "county": "瑞昌市",
    "basin": "长江流域",
    "type": "中型",
    "capacity": 1022.0,
    "damType": "均质坝",
    "maxHeight": 41.3
  },
  {
    "id": "2-132",
    "name": "三八",
    "province": "江西",
    "location": "江西宜春市高安市",
    "coordinates": [
      115.381527,
      28.420951
    ],
    "city": "宜春市",
    "county": "高安市",
    "basin": "长江流域",
    "type": "中型",
    "capacity": 1057.0,
    "damType": "均质坝",
    "maxHeight": 16.5
  },
  {
    "id": "2-133",
    "name": "上游",
    "province": "江西",
    "location": "江西宜春市高安市",
    "coordinates": [
      115.381527,
      28.420951
    ],
    "city": "宜春市",
    "county": "高安市",
    "basin": "长江流域",
    "type": "大型",
    "capacity": 18500.0,
    "damType": "均质坝",
    "maxHeight": 28.2
  },
  {
    "id": "2-134",
    "name": "板坑",
    "province": "江西",
    "location": "江西宜春市宜丰县",
    "coordinates": [
      114.787381,
      28.388289
    ],
    "city": "宜春市",
    "county": "宜丰县",
    "basin": "长江流域",
    "type": "中型",
    "capacity": 1041.0,
    "damType": "均质坝",
    "maxHeight": 32.4
  },
  {
    "id": "2-135",
    "name": "飞剑潭",
    "province": "江西",
    "location": "江西宜春市袁州区",
    "coordinates": [
      114.387379,
      27.800117
    ],
    "city": "宜春市",
    "county": "袁州区",
    "basin": "长江流域",
    "type": "大型",
    "capacity": 10560.0,
    "damType": "均质坝",
    "maxHeight": 33.22
  },
  {
    "id": "2-136",
    "name": "上石",
    "province": "江西",
    "location": "江西宜春市袁州区",
    "coordinates": [
      114.387379,
      27.800117
    ],
    "city": "宜春市",
    "county": "袁州区",
    "basin": "长江流域",
    "type": "中型",
    "capacity": 1261.0,
    "damType": "均质坝",
    "maxHeight": 26.22
  },
  {
    "id": "2-137",
    "name": "店下",
    "province": "江西",
    "location": "江西宜春市樟树市",
    "coordinates": [
      115.543388,
      28.055898
    ],
    "city": "宜春市",
    "county": "樟树市",
    "basin": "长江流域",
    "type": "中型",
    "capacity": 4515.0,
    "damType": "均质坝",
    "maxHeight": 28.73
  },
  {
    "id": "2-138",
    "name": "三道河水库",
    "province": "辽宁",
    "location": "辽宁本溪市本溪满族自治县",
    "coordinates": [
      124.126156,
      41.300344
    ],
    "city": "本溪市",
    "county": "本溪满族自治县",
    "basin": "松花江及辽河流域",
    "type": "中型",
    "capacity": 3011.0,
    "damType": "均质坝",
    "maxHeight": 36.2
  },
  {
    "id": "2-139",
    "name": "刁家坝水库",
    "province": "辽宁",
    "location": "辽宁丹东市东港市",
    "coordinates": [
      124.149437,
      39.883467
    ],
    "city": "丹东市",
    "county": "东港市",
    "basin": "松花江及辽河流域",
    "type": "中型",
    "capacity": 2859.0,
    "damType": "均质坝",
    "maxHeight": 13.65
  },
  {
    "id": "2-140",
    "name": "何家岗水库",
    "province": "辽宁",
    "location": "辽宁丹东市东港市",
    "coordinates": [
      124.149437,
      39.883467
    ],
    "city": "丹东市",
    "county": "东港市",
    "basin": "松花江及辽河流域",
    "type": "中型",
    "capacity": 2218.0,
    "damType": "均质坝",
    "maxHeight": 9.5
  },
  {
    "id": "2-141",
    "name": "铁甲水库",
    "province": "辽宁",
    "location": "辽宁丹东市东港市",
    "coordinates": [
      124.149437,
      39.883467
    ],
    "city": "丹东市",
    "county": "东港市",
    "basin": "珠江流域",
    "type": "大型",
    "capacity": 24400.0,
    "damType": "均质坝",
    "maxHeight": 24.53
  },
  {
    "id": "2-142",
    "name": "龙湾水库",
    "province": "辽宁",
    "location": "辽宁锦州市黑山县",
    "coordinates": [
      122.117915,
      41.691804
    ],
    "city": "锦州市",
    "county": "黑山县",
    "basin": "松花江及辽河流域",
    "type": "中型",
    "capacity": 7019.0,
    "damType": "均质坝",
    "maxHeight": 16.6
  },
  {
    "id": "2-143",
    "name": "汤河水库",
    "province": "辽宁",
    "location": "辽宁辽阳市弓长岭区",
    "coordinates": [
      123.431633,
      41.157831
    ],
    "city": "辽阳市",
    "county": "弓长岭区",
    "basin": "珠江流域",
    "type": "大型",
    "capacity": 62600.0,
    "damType": "均质坝",
    "maxHeight": 48.5
  },
  {
    "id": "2-144",
    "name": "三角洲水库护坡维修加固工程项目",
    "province": "辽宁",
    "location": "辽宁盘锦市大洼区",
    "coordinates": [
      122.071708,
      40.994428
    ],
    "city": "盘锦市",
    "county": "大洼区",
    "basin": "松花江及辽河流域",
    "type": "中型",
    "capacity": 5266.0,
    "damType": "均质坝",
    "maxHeight": 6.22
  },
  {
    "id": "2-145",
    "name": "红顶山水库",
    "province": "辽宁",
    "location": "辽宁铁岭市昌图县",
    "coordinates": [
      124.11017,
      42.784441
    ],
    "city": "铁岭市",
    "county": "昌图县",
    "basin": "松花江及辽河流域",
    "type": "中型",
    "capacity": 2147.0,
    "damType": "均质坝",
    "maxHeight": 13.2
  },
  {
    "id": "2-146",
    "name": "红山水库",
    "province": "辽宁",
    "location": "辽宁铁岭市昌图县",
    "coordinates": [
      124.11017,
      42.784441
    ],
    "city": "铁岭市",
    "county": "昌图县",
    "basin": "松花江及辽河流域",
    "type": "中型",
    "capacity": 2489.0,
    "damType": "均质坝",
    "maxHeight": 15.99
  },
  {
    "id": "2-147",
    "name": "清河水库",
    "province": "辽宁",
    "location": "辽宁铁岭市清河区",
    "coordinates": [
      115.668999,
      37.059991
    ],
    "city": "铁岭市",
    "county": "清河区",
    "basin": "松花江及辽河流域",
    "type": "大型",
    "capacity": 96800.0,
    "damType": "均质坝",
    "maxHeight": 39.6
  },
  {
    "id": "2-148",
    "name": "石门水库",
    "province": "辽宁",
    "location": "辽宁营口市盖州市",
    "coordinates": [
      122.355534,
      40.405234
    ],
    "city": "营口市",
    "county": "盖州市",
    "basin": "珠江流域",
    "type": "大型",
    "capacity": 10600.0,
    "damType": "均质坝",
    "maxHeight": 47.0
  },
  {
    "id": "2-149",
    "name": "当阳桥水库",
    "province": "内蒙古",
    "location": "内蒙古呼和浩特市清水河县",
    "coordinates": [
      111.67222,
      39.912479
    ],
    "city": "呼和浩特市",
    "county": "清水河县",
    "basin": "黄河流域",
    "type": "中型",
    "capacity": 9955.0,
    "damType": "支墩坝",
    "maxHeight": 25.0
  },
  {
    "id": "2-150",
    "name": "红领巾",
    "province": "内蒙古",
    "location": "内蒙古呼和浩特市土默特左旗",
    "coordinates": [
      111.133615,
      40.720416
    ],
    "city": "呼和浩特市",
    "county": "土默特左旗",
    "basin": "黄河流域",
    "type": "中型",
    "capacity": 2100.0,
    "damType": "均质坝",
    "maxHeight": 44.617
  },
  {
    "id": "2-151",
    "name": "新发水库",
    "province": "内蒙古",
    "location": "内蒙古呼伦贝尔市莫力达瓦达斡尔族自治旗",
    "coordinates": [
      124.507401,
      48.478385
    ],
    "city": "呼伦贝尔市",
    "county": "莫力达瓦达斡尔族自治旗",
    "basin": "松花江及辽河流域",
    "type": "中型",
    "capacity": 3808.0,
    "damType": "均质坝",
    "maxHeight": 9.7
  },
  {
    "id": "2-152",
    "name": "西庄",
    "province": "宁夏",
    "location": "宁夏固原市彭阳县",
    "coordinates": [
      106.641512,
      35.849975
    ],
    "city": "固原市",
    "county": "彭阳县",
    "basin": "海河流域",
    "type": "中型",
    "capacity": 1460.0,
    "maxHeight": 49.9
  },
  {
    "id": "2-153",
    "name": "孤河水库",
    "province": "山东",
    "location": "山东东营市河口区",
    "coordinates": [
      118.529613,
      37.886015
    ],
    "city": "东营市",
    "county": "河口区",
    "basin": "海河流域",
    "type": "中型",
    "capacity": 2780.0,
    "damType": "均质坝",
    "maxHeight": 5.3
  },
  {
    "id": "2-154",
    "name": "宋化泉水库",
    "province": "山东",
    "location": "山东青岛市即墨区",
    "coordinates": [
      120.447352,
      36.390847
    ],
    "city": "青岛市",
    "county": "即墨区",
    "basin": "淮河流域",
    "type": "中型",
    "capacity": 2534.0,
    "damType": "均质坝",
    "maxHeight": 12.67
  },
  {
    "id": "2-155",
    "name": "留驾水库",
    "province": "山东",
    "location": "山东烟台市莱州市",
    "coordinates": [
      119.942135,
      37.182725
    ],
    "city": "烟台市",
    "county": "莱州市",
    "basin": "淮河流域",
    "type": "中型",
    "capacity": 3105.0,
    "maxHeight": 18.65
  },
  {
    "id": "2-156",
    "name": "十里河水库",
    "province": "山西",
    "location": "山西大同市左云县",
    "coordinates": [
      112.70641,
      40.012873
    ],
    "city": "大同市",
    "county": "左云县",
    "basin": "珠江流域",
    "type": "中型",
    "capacity": 1086.0,
    "damType": "均质坝",
    "maxHeight": 16.0
  },
  {
    "id": "2-157",
    "name": "郭堡",
    "province": "山西",
    "location": "山西晋中市太谷区",
    "coordinates": [
      112.554103,
      37.424595
    ],
    "city": "晋中市",
    "county": "太谷区",
    "basin": "黄河流域",
    "type": "中型",
    "capacity": 3111.0,
    "damType": "均质坝",
    "maxHeight": 40.0
  },
  {
    "id": "2-158",
    "name": "白荻沟",
    "province": "陕西",
    "location": "陕西宝鸡市凤翔县",
    "coordinates": [
      107.400577,
      34.521668
    ],
    "city": "宝鸡市",
    "county": "凤翔县",
    "basin": "黄河流域",
    "type": "中型",
    "capacity": 1465.0,
    "damType": "均质坝",
    "maxHeight": 34.5
  },
  {
    "id": "2-159",
    "name": "东风",
    "province": "陕西",
    "location": "陕西宝鸡市凤翔县",
    "coordinates": [
      107.400577,
      34.521668
    ],
    "city": "宝鸡市",
    "county": "凤翔县",
    "basin": "黄河流域",
    "type": "中型",
    "capacity": 1550.0,
    "damType": "均质坝",
    "maxHeight": 26.5
  },
  {
    "id": "2-160",
    "name": "石头河",
    "province": "陕西",
    "location": "陕西宝鸡市眉县",
    "coordinates": [
      107.752371,
      34.272137
    ],
    "city": "宝鸡市",
    "county": "眉县",
    "basin": "松花江及辽河流域",
    "type": "大型",
    "capacity": 14700.0,
    "damType": "均质坝",
    "maxHeight": 114.0
  },
  {
    "id": "2-161",
    "name": "石门水库",
    "province": "陕西",
    "location": "陕西汉中市汉台区",
    "coordinates": [
      107.028233,
      33.077674
    ],
    "city": "汉中市",
    "county": "汉台区",
    "basin": "松花江及辽河流域",
    "type": "大型",
    "capacity": 10980.0,
    "damType": "重力坝",
    "maxHeight": 88.0
  },
  {
    "id": "2-162",
    "name": "鱼岭",
    "province": "陕西",
    "location": "陕西商洛市丹凤县",
    "coordinates": [
      110.33191,
      33.694711
    ],
    "city": "商洛市",
    "county": "丹凤县",
    "basin": "长江流域",
    "type": "中型",
    "capacity": 1037.5,
    "damType": "心墙坝",
    "maxHeight": 50.0
  },
  {
    "id": "2-163",
    "name": "桃曲坡",
    "province": "陕西",
    "location": "陕西铜川市耀州区",
    "coordinates": [
      108.962538,
      34.910206
    ],
    "city": "铜川市",
    "county": "耀州区",
    "basin": "珠江流域",
    "type": "中型",
    "capacity": 5720.0,
    "damType": "均质坝",
    "maxHeight": 61.0
  },
  {
    "id": "2-164",
    "name": "老鸦咀",
    "province": "陕西",
    "location": "陕西咸阳市乾县",
    "coordinates": [
      108.247406,
      34.527261
    ],
    "city": "咸阳市",
    "county": "乾县",
    "basin": "黄河流域",
    "type": "中型",
    "capacity": 2370.0,
    "damType": "均质坝",
    "maxHeight": 48.6
  },
  {
    "id": "2-165",
    "name": "羊毛湾",
    "province": "陕西",
    "location": "陕西咸阳市乾县",
    "coordinates": [
      108.247406,
      34.527261
    ],
    "city": "咸阳市",
    "county": "乾县",
    "basin": "黄河流域",
    "type": "大型",
    "capacity": 12000.0,
    "damType": "均质坝",
    "maxHeight": 47.6
  },
  {
    "id": "2-166",
    "name": "孙台",
    "province": "陕西",
    "location": "陕西延安市宝塔区",
    "coordinates": [
      109.49069,
      36.596291
    ],
    "city": "延安市",
    "county": "宝塔区",
    "basin": "松花江及辽河流域",
    "type": "中型",
    "capacity": 1795.0,
    "damType": "均质坝",
    "maxHeight": 52.6
  },
  {
    "id": "2-167",
    "name": "边墙渠",
    "province": "陕西",
    "location": "陕西延安市吴起县",
    "coordinates": [
      108.176976,
      36.924852
    ],
    "city": "延安市",
    "county": "吴起县",
    "basin": "黄河流域",
    "type": "中型",
    "capacity": 7478.0,
    "damType": "均质坝",
    "maxHeight": 72.0
  },
  {
    "id": "2-168",
    "name": "中山川",
    "province": "陕西",
    "location": "陕西延安市子长市",
    "coordinates": [
      109.675968,
      37.14207
    ],
    "city": "延安市",
    "county": "子长市",
    "basin": "黄河流域",
    "type": "中型",
    "capacity": 4430.0,
    "damType": "均质坝",
    "maxHeight": 58.0
  },
  {
    "id": "2-169",
    "name": "河口庙",
    "province": "陕西",
    "location": "陕西榆林市横山区",
    "coordinates": [
      109.292596,
      37.964048
    ],
    "city": "榆林市",
    "county": "横山区",
    "basin": "黄河流域",
    "type": "中型",
    "capacity": 6347.0,
    "damType": "均质坝",
    "maxHeight": 47.0
  },
  {
    "id": "2-170",
    "name": "常家沟",
    "province": "陕西",
    "location": "陕西榆林市神木市",
    "coordinates": [
      110.497005,
      38.835641
    ],
    "city": "榆林市",
    "county": "神木市",
    "basin": "黄河流域",
    "type": "中型",
    "capacity": 1173.0,
    "damType": "均质坝",
    "maxHeight": 46.0
  },
  {
    "id": "2-171",
    "name": "李家梁",
    "province": "陕西",
    "location": "陕西榆林市榆阳区",
    "coordinates": [
      109.74791,
      38.299267
    ],
    "city": "榆林市",
    "county": "榆阳区",
    "basin": "黄河流域",
    "type": "中型",
    "capacity": 2340.0,
    "damType": "均质坝",
    "maxHeight": 25.0
  },
  {
    "id": "2-172",
    "name": "尤家峁",
    "province": "陕西",
    "location": "陕西榆林市榆阳区",
    "coordinates": [
      109.74791,
      38.299267
    ],
    "city": "榆林市",
    "county": "榆阳区",
    "basin": "黄河流域",
    "type": "中型",
    "capacity": 1584.0,
    "damType": "均质坝",
    "maxHeight": 29.0
  },
  {
    "id": "2-173",
    "name": "宝石桥",
    "province": "四川",
    "location": "四川达州市开江县",
    "coordinates": [
      107.864135,
      31.085537
    ],
    "city": "达州市",
    "county": "开江县",
    "basin": "长江流域",
    "type": "大型",
    "capacity": 10142.0,
    "damType": "其他",
    "maxHeight": 34.7
  },
  {
    "id": "2-174",
    "name": "大高滩",
    "province": "四川",
    "location": "四川广安市岳池县",
    "coordinates": [
      106.444451,
      30.533538
    ],
    "city": "广安市",
    "county": "岳池县",
    "basin": "长江流域",
    "type": "中型",
    "capacity": 3980.0,
    "damType": "均质坝",
    "maxHeight": 36.27
  },
  {
    "id": "2-175",
    "name": "工农",
    "province": "四川",
    "location": "四川广元市昭化区-元坝区",
    "coordinates": [
      105.829757,
      32.433668
    ],
    "city": "广元市",
    "county": "昭化区-元坝区",
    "basin": "长江流域",
    "type": "中型",
    "capacity": 1303.0,
    "damType": "均质坝",
    "maxHeight": 29.94
  },
  {
    "id": "2-176",
    "name": "艾大桥",
    "province": "四川",
    "location": "四川泸州市泸县",
    "coordinates": [
      105.376335,
      29.151288
    ],
    "city": "泸州市",
    "county": "泸县",
    "basin": "长江流域",
    "type": "中型",
    "capacity": 1198.0,
    "damType": "支墩坝",
    "maxHeight": 42.7
  },
  {
    "id": "2-177",
    "name": "东方红",
    "province": "四川",
    "location": "四川绵阳市梓潼县",
    "coordinates": [
      105.16353,
      31.635225
    ],
    "city": "绵阳市",
    "county": "梓潼县",
    "basin": "长江流域",
    "type": "中型",
    "capacity": 2066.0,
    "damType": "均质坝",
    "maxHeight": 40.4
  },
  {
    "id": "2-178",
    "name": "幸福水库",
    "province": "四川",
    "location": "四川南充市营山县",
    "coordinates": [
      106.564893,
      31.075907
    ],
    "city": "南充市",
    "county": "营山县",
    "basin": "长江流域",
    "type": "中型",
    "capacity": 3873.0,
    "damType": "支墩坝",
    "maxHeight": 31.6
  },
  {
    "id": "2-179",
    "name": "寸塘口",
    "province": "四川",
    "location": "四川遂宁市大英县",
    "coordinates": [
      105.252187,
      30.581571
    ],
    "city": "遂宁市",
    "county": "大英县",
    "basin": "长江流域",
    "type": "中型",
    "capacity": 1960.0,
    "damType": "支墩坝",
    "maxHeight": 23.55
  },
  {
    "id": "2-180",
    "name": "赤城湖",
    "province": "四川",
    "location": "四川遂宁市蓬溪县",
    "coordinates": [
      105.713699,
      30.774883
    ],
    "city": "遂宁市",
    "county": "蓬溪县",
    "basin": "长江流域",
    "type": "中型",
    "capacity": 2665.0,
    "damType": "均质坝",
    "maxHeight": 28.0
  },
  {
    "id": "2-181",
    "name": "三屯河",
    "province": "新疆",
    "location": "新疆昌吉回族自治州昌吉市",
    "coordinates": [
      87.304112,
      44.013183
    ],
    "city": "昌吉回族自治州",
    "county": "昌吉市",
    "basin": "黄河流域",
    "type": "中型",
    "capacity": 3131.0,
    "damType": "支墩坝",
    "maxHeight": 52.0
  },
  {
    "id": "2-182",
    "name": "红山",
    "province": "新疆",
    "location": "新疆昌吉回族自治州呼图壁县",
    "coordinates": [
      86.888613,
      44.189342
    ],
    "city": "昌吉回族自治州",
    "county": "呼图壁县",
    "basin": "黄河流域",
    "type": "中型",
    "capacity": 1487.0,
    "damType": "均质坝",
    "maxHeight": 41.5
  },
  {
    "id": "2-183",
    "name": "英尔里克",
    "province": "新疆",
    "location": "新疆和田地区和田县",
    "coordinates": [
      79.927542,
      37.108944
    ],
    "city": "和田地区",
    "county": "和田县",
    "basin": "黄河流域",
    "type": "中型",
    "capacity": 1426.0,
    "damType": "其他",
    "maxHeight": 10.6
  },
  {
    "id": "2-184",
    "name": "红海水库",
    "province": "新疆",
    "location": "新疆喀什地区巴楚县",
    "coordinates": [
      78.55041,
      39.783479
    ],
    "city": "喀什地区",
    "county": "巴楚县",
    "basin": "黄河流域",
    "type": "中型",
    "capacity": 7200.0,
    "damType": "均质坝",
    "maxHeight": 6.3
  },
  {
    "id": "2-185",
    "name": "西克尔水库",
    "province": "新疆",
    "location": "新疆喀什地区伽师县",
    "coordinates": [
      76.741982,
      39.494325
    ],
    "city": "喀什地区",
    "county": "伽师县",
    "basin": "黄河流域",
    "type": "大型",
    "capacity": 10014.0,
    "damType": "均质坝",
    "maxHeight": 7.0
  },
  {
    "id": "2-186",
    "name": "三锅桩水库",
    "province": "云南",
    "location": "云南大理白族自治州鹤庆县",
    "coordinates": [
      100.173375,
      26.55839
    ],
    "city": "大理白族自治州",
    "county": "鹤庆县",
    "basin": "长江流域",
    "type": "中型",
    "capacity": 1539.6,
    "maxHeight": 61.3
  },
  {
    "id": "2-187",
    "name": "玉华水库",
    "province": "云南",
    "location": "云南大理白族自治州剑川县",
    "coordinates": [
      99.905887,
      26.530066
    ],
    "city": "大理白族自治州",
    "county": "剑川县",
    "basin": "长江流域",
    "type": "中型",
    "capacity": 1065.0,
    "damType": "均质坝",
    "maxHeight": 26.9
  },
  {
    "id": "2-188",
    "name": "栗树营水库",
    "province": "云南",
    "location": "云南大理白族自治州弥渡县",
    "coordinates": [
      100.490669,
      25.342594
    ],
    "city": "大理白族自治州",
    "county": "弥渡县",
    "basin": "珠江流域",
    "type": "中型",
    "capacity": 1555.0,
    "maxHeight": 58.3
  },
  {
    "id": "2-189",
    "name": "芒旦",
    "province": "云南",
    "location": "云南德宏傣族景颇族自治州陇川县",
    "coordinates": [
      97.794441,
      24.184065
    ],
    "city": "德宏傣族景颇族自治州",
    "county": "陇川县",
    "basin": "珠江流域",
    "capacity": 0.0,
    "maxHeight": 35.65
  },
  {
    "id": "2-190",
    "name": "芒究",
    "province": "云南",
    "location": "云南德宏傣族景颇族自治州芒市-潞西市",
    "coordinates": [
      98.578363,
      24.436694
    ],
    "city": "德宏傣族景颇族自治州",
    "county": "芒市-潞西市",
    "basin": "珠江流域",
    "capacity": 0.0,
    "maxHeight": 42.0
  },
  {
    "id": "2-191",
    "name": "绵羊冲水库",
    "province": "云南",
    "location": "云南红河哈尼族彝族自治州建水县",
    "coordinates": [
      102.820493,
      23.618387
    ],
    "city": "红河哈尼族彝族自治州",
    "county": "建水县",
    "basin": "珠江流域",
    "type": "中型",
    "capacity": 1520.0,
    "damType": "均质坝",
    "maxHeight": 43.7
  },
  {
    "id": "2-192",
    "name": "大庄水库",
    "province": "云南",
    "location": "云南红河哈尼族彝族自治州开远市",
    "coordinates": [
      103.258679,
      23.713832
    ],
    "city": "红河哈尼族彝族自治州",
    "county": "开远市",
    "basin": "珠江流域",
    "type": "中型",
    "capacity": 2424.5,
    "damType": "均质坝",
    "maxHeight": 77.0
  },
  {
    "id": "2-193",
    "name": "阿味水库",
    "province": "云南",
    "location": "云南红河哈尼族彝族自治州泸西县",
    "coordinates": [
      103.759622,
      24.532368
    ],
    "city": "红河哈尼族彝族自治州",
    "county": "泸西县",
    "basin": "珠江流域",
    "type": "中型",
    "capacity": 1175.67,
    "damType": "均质坝",
    "maxHeight": 16.2
  },
  {
    "id": "2-194",
    "name": "五者水库",
    "province": "云南",
    "location": "云南红河哈尼族彝族自治州泸西县",
    "coordinates": [
      103.759622,
      24.532368
    ],
    "city": "红河哈尼族彝族自治州",
    "county": "泸西县",
    "basin": "珠江流域",
    "type": "中型",
    "capacity": 1242.1,
    "damType": "均质坝",
    "maxHeight": 39.1
  },
  {
    "id": "2-195",
    "name": "高冲水库",
    "province": "云南",
    "location": "云南红河哈尼族彝族自治州石屏县",
    "coordinates": [
      102.484469,
      23.712569
    ],
    "city": "红河哈尼族彝族自治州",
    "county": "石屏县",
    "basin": "黄河流域",
    "type": "中型",
    "capacity": 1051.1,
    "damType": "均质坝",
    "maxHeight": 36.25
  },
  {
    "id": "2-196",
    "name": "黑龙潭",
    "province": "云南",
    "location": "云南昆明市石林彝族自治县",
    "coordinates": [
      103.271962,
      24.754545
    ],
    "city": "昆明市",
    "county": "石林彝族自治县",
    "basin": "珠江流域",
    "type": "中型",
    "capacity": 2528.0,
    "maxHeight": 33.4
  },
  {
    "id": "2-197",
    "name": "上游水库",
    "province": "云南",
    "location": "云南昆明市嵩明县",
    "coordinates": [
      103.038777,
      25.335087
    ],
    "city": "昆明市",
    "county": "嵩明县",
    "basin": "长江流域",
    "type": "中型",
    "capacity": 2580.0,
    "damType": "均质坝",
    "maxHeight": 16.5
  },
  {
    "id": "2-198",
    "name": "另仂",
    "province": "云南",
    "location": "云南临沧市耿马傣族佤族自治县",
    "coordinates": [
      99.402495,
      23.534579
    ],
    "city": "临沧市",
    "county": "耿马傣族佤族自治县",
    "basin": "长江流域",
    "type": "中型",
    "capacity": 1100.3,
    "damType": "均质坝",
    "maxHeight": 73.5
  },
  {
    "id": "2-199",
    "name": "清华洞水库",
    "province": "云南",
    "location": "云南文山壮族苗族自治州富宁县",
    "coordinates": [
      105.62856,
      23.626494
    ],
    "city": "文山壮族苗族自治州",
    "county": "富宁县",
    "basin": "珠江流域",
    "type": "中型",
    "capacity": 9965.0,
    "maxHeight": 87.5
  },
  {
    "id": "2-200",
    "name": "蒿枝坝",
    "province": "云南",
    "location": "云南昭通市永善县",
    "coordinates": [
      103.63732,
      28.231526
    ],
    "city": "昭通市",
    "county": "永善县",
    "basin": "长江流域",
    "type": "中型",
    "capacity": 1235.0,
    "damType": "均质坝",
    "maxHeight": 44.3
  },
  {
    "id": "3A1A130011X",
    "name": "福建峰头水库",
    "province": "福建",
    "location": "福建漳州市云霄县",
    "coordinates": [
      117.340946,
      23.950486
    ],
    "city": "漳州市",
    "county": "云霄县",
    "basin": "太湖流域",
    "type": "大型",
    "capacity": 17600.0,
    "damType": "重力坝",
    "maxHeight": 64.4
  },
  {
    "id": "3B1A130011X",
    "name": "福建六甲水库",
    "province": "福建",
    "location": "福建龙岩市武平县",
    "coordinates": [
      116.100928,
      25.08865
    ],
    "city": "龙岩市",
    "county": "武平县",
    "basin": "珠江流域",
    "type": "中型",
    "capacity": 1625.0,
    "damType": "均质坝",
    "maxHeight": 28.18
  },
  {
    "id": "3B1A130321X",
    "name": "福建灌洋水库",
    "province": "福建",
    "location": "福建龙岩市永定县",
    "coordinates": [
      116.732691,
      24.720442
    ],
    "city": "龙岩市",
    "county": "永定县",
    "basin": "珠江流域",
    "type": "中型",
    "capacity": 2224.0,
    "damType": "重力坝",
    "maxHeight": 48.0
  },
  {
    "id": "3B1A130021X",
    "name": "福建泉上水库",
    "province": "福建",
    "location": "福建三明市宁化县",
    "coordinates": [
      116.659725,
      26.259932
    ],
    "city": "三明市",
    "county": "宁化县",
    "basin": "太湖流域",
    "type": "中型",
    "capacity": 1441.0,
    "damType": "均质坝",
    "maxHeight": 32.0
  },
  {
    "id": "3B1A130031X",
    "name": "福建小王水库",
    "province": "福建",
    "location": "福建三明市将乐县",
    "coordinates": [
      117.473558,
      26.728667
    ],
    "city": "三明市",
    "county": "将乐县",
    "basin": "太湖流域",
    "type": "中型",
    "capacity": 1360.0,
    "damType": "均质坝",
    "maxHeight": 29.4
  },
  {
    "id": "3B1A130041X",
    "name": "福建岭里水库",
    "province": "福建",
    "location": "福建福州市闽清县",
    "coordinates": [
      118.868416,
      26.223793
    ],
    "city": "福州市",
    "county": "闽清县",
    "basin": "太湖流域",
    "type": "中型",
    "capacity": 1097.0,
    "damType": "心墙坝",
    "maxHeight": 41.1
  },
  {
    "id": "3B1A130061X",
    "name": "福建上林水库",
    "province": "福建",
    "location": "福建龙岩市漳平市",
    "coordinates": [
      117.42073,
      25.291597
    ],
    "city": "龙岩市",
    "county": "漳平市",
    "basin": "太湖流域",
    "type": "中型",
    "capacity": 1135.0,
    "damType": "均质坝",
    "maxHeight": 27.32
  },
  {
    "id": "3B1A130071X",
    "name": "福建小赤院水库",
    "province": "福建",
    "location": "福建南平市建瓯市",
    "coordinates": [
      118.321765,
      27.03502
    ],
    "city": "南平市",
    "county": "建瓯市",
    "basin": "太湖流域",
    "type": "中型",
    "capacity": 1276.0,
    "damType": "均质坝",
    "maxHeight": 44.5
  },
  {
    "id": "3B1A130081X",
    "name": "福建金涵水库",
    "province": "福建",
    "location": "福建宁德市蕉城区",
    "coordinates": [
      119.527225,
      26.659253
    ],
    "city": "宁德市",
    "county": "蕉城区",
    "basin": "太湖流域",
    "type": "中型",
    "capacity": 1633.0,
    "damType": "心墙坝",
    "maxHeight": 39.7
  },
  {
    "id": "3B1A130101X",
    "name": "福建东坑水库",
    "province": "福建",
    "location": "福建南平市浦城县",
    "coordinates": [
      118.536822,
      27.920412
    ],
    "city": "南平市",
    "county": "浦城县",
    "basin": "太湖流域",
    "type": "中型",
    "capacity": 1565.0,
    "damType": "心墙坝",
    "maxHeight": 42.0
  },
  {
    "id": "3B1A130121X",
    "name": "福建陈田水库",
    "province": "福建",
    "location": "福建泉州市泉港区",
    "coordinates": [
      118.912285,
      25.126859
    ],
    "city": "泉州市",
    "county": "泉港区",
    "basin": "太湖流域",
    "type": "中型",
    "capacity": 2563.0,
    "damType": "均质坝",
    "maxHeight": 48.2
  },
  {
    "id": "3B1A130131X",
    "name": "福建活盘水库",
    "province": "福建",
    "location": "福建漳州市长泰县",
    "coordinates": [
      117.755913,
      24.621475
    ],
    "city": "漳州市",
    "county": "长泰县",
    "basin": "太湖流域",
    "type": "中型",
    "capacity": 1992.8,
    "damType": "均质坝",
    "maxHeight": 28.15
  },
  {
    "id": "3B1A130151X",
    "name": "福建蒋隔水库",
    "province": "福建",
    "location": "福建莆田市仙游县",
    "coordinates": [
      118.694331,
      25.356529
    ],
    "city": "莆田市",
    "county": "仙游县",
    "basin": "太湖流域",
    "type": "中型",
    "capacity": 1460.88,
    "damType": "心墙坝",
    "maxHeight": 43.9
  },
  {
    "id": "3B1A130111X",
    "name": "福建后桥水库",
    "province": "福建",
    "location": "福建泉州市南安市",
    "coordinates": [
      118.387031,
      24.959494
    ],
    "city": "泉州市",
    "county": "南安市",
    "basin": "太湖流域",
    "type": "中型",
    "capacity": 4040.0,
    "damType": "心墙坝",
    "maxHeight": 30.78
  },
  {
    "id": "3B1A130141X",
    "name": "福建文溪水库",
    "province": "福建",
    "location": "福建泉州市南安市",
    "coordinates": [
      118.387031,
      24.959494
    ],
    "city": "泉州市",
    "county": "南安市",
    "basin": "太湖流域",
    "type": "中型",
    "capacity": 1159.0,
    "damType": "均质坝",
    "maxHeight": 48.4
  },
  {
    "id": "3B1A130161X",
    "name": "福建隆陂水库",
    "province": "福建",
    "location": "福建三明市宁化县",
    "coordinates": [
      116.659725,
      26.259932
    ],
    "city": "三明市",
    "county": "宁化县",
    "basin": "太湖流域",
    "type": "中型",
    "capacity": 1735.0,
    "damType": "斜墙坝",
    "maxHeight": 29.75
  },
  {
    "id": "3B1A130171X",
    "name": "福建桥下水库",
    "province": "福建",
    "location": "福建三明市宁化县",
    "coordinates": [
      116.659725,
      26.259932
    ],
    "city": "三明市",
    "county": "宁化县",
    "basin": "太湖流域",
    "type": "中型",
    "capacity": 1012.0,
    "damType": "均质坝",
    "maxHeight": 44.9
  },
  {
    "id": "3B1A130191X",
    "name": "福建琴源水库",
    "province": "福建",
    "location": "福建三明市清流县",
    "coordinates": [
      116.815821,
      26.17761
    ],
    "city": "三明市",
    "county": "清流县",
    "basin": "太湖流域",
    "type": "中型",
    "capacity": 1494.0,
    "damType": "心墙坝",
    "maxHeight": 42.31
  },
  {
    "id": "3B1A130221X",
    "name": "福建湖后水库",
    "province": "福建",
    "location": "福建漳州市龙海市",
    "coordinates": [
      117.817292,
      24.445341
    ],
    "city": "漳州市",
    "county": "龙海市",
    "basin": "太湖流域",
    "type": "中型",
    "capacity": 1330.0,
    "damType": "均质坝",
    "maxHeight": 31.2
  },
  {
    "id": "3B1A130261X",
    "name": "福建建新水库",
    "province": "福建",
    "location": "福建福州市福清市",
    "coordinates": [
      119.376992,
      25.720402
    ],
    "city": "福州市",
    "county": "福清市",
    "basin": "太湖流域",
    "type": "中型",
    "capacity": 3892.0,
    "damType": "心墙坝",
    "maxHeight": 42.7
  },
  {
    "id": "3B1A130271X",
    "name": "福建龙岭下水库",
    "province": "福建",
    "location": "福建南平市浦城县",
    "coordinates": [
      118.536822,
      27.920412
    ],
    "city": "南平市",
    "county": "浦城县",
    "basin": "太湖流域",
    "type": "中型",
    "capacity": 1472.0,
    "damType": "拱坝",
    "maxHeight": 53.3
  },
  {
    "id": "3B1A130281X",
    "name": "福建坂头水库",
    "province": "福建",
    "location": "福建泉州市南安市",
    "coordinates": [
      118.387031,
      24.959494
    ],
    "city": "泉州市",
    "county": "南安市",
    "basin": "太湖流域",
    "type": "中型",
    "capacity": 1211.0,
    "damType": "均质坝",
    "maxHeight": 50.3
  },
  {
    "id": "3B1A130291X",
    "name": "福建祖妈林水库",
    "province": "福建",
    "location": "福建漳州市漳浦县",
    "coordinates": [
      117.614023,
      24.117907
    ],
    "city": "漳州市",
    "county": "漳浦县",
    "basin": "太湖流域",
    "type": "中型",
    "capacity": 3508.0,
    "damType": "心墙坝",
    "maxHeight": 39.0
  },